[
  {
    "ID_lieu": 1,
    "Nom_lieu": "Lómagnúpssandur",
    "Coordonnees": "63.894717, -17.271697",
    "Type": "other",
    "Notes": "same as Skeiðarársandur",
    "lat": 63.894717,
    "lon": -17.271697,
    "leaflet_coords": [
      63.894717,
      -17.271697
    ]
  },
  {
    "ID_lieu": 2,
    "Nom_lieu": "Bjarnarfjörður",
    "Coordonnees": "65.767618, -21.434208",
    "Type": "fjord",
    "Notes":"NaN",
    "lat": 65.767618,
    "lon": -21.434208,
    "leaflet_coords": [
      65.767618,
      -21.434208
    ]
  },
  {
    "ID_lieu": 3,
    "Nom_lieu": "Ossabær",
    "Coordonnees": "63.673913, -20.116362",
    "Type": "farm",
    "Notes": "same as Vorsabær. See https://xn--mli-ela1f.is/leit/vörs",
    "lat": 63.673913,
    "lon": -20.116362,
    "leaflet_coords": [
      63.673913,
      -20.116362
    ]
  },
  {
    "ID_lieu": 4,
    "Nom_lieu": "Geilastofnar",
    "Coordonnees": "63.744904, -20.185592",
    "Type": "farm",
    "Notes": "same as Giljur? Identification problematic. See further BB p. 21.",
    "lat": 63.744904,
    "lon": -20.185592,
    "leaflet_coords": [
      63.744904,
      -20.185592
    ]
  },
  {
    "ID_lieu": 5,
    "Nom_lieu": "Þjórsá",
    "Coordonnees": "63.944279, -20.571318",
    "Type": "river",
    "Notes": "Fords were/are at Sóleyjarhöfði (on the old Sprengisandur route), Gaukshöfði, Hagavað, Nautavað. Also at Holtavað (now lost) and Eyjavað.",
    "lat": 63.944279,
    "lon": -20.571318,
    "leaflet_coords": [
      63.944279,
      -20.571318
    ]
  },
  {
    "ID_lieu": 6,
    "Nom_lieu": "Mörtunga",
    "Coordonnees": "63.840778, -18.063585",
    "Type": "farm",
    "Notes":"NaN",
    "lat": 63.840778,
    "lon": -18.063585,
    "leaflet_coords": [
      63.840778,
      -18.063585
    ]
  },
  {
    "ID_lieu": 7,
    "Nom_lieu": "Holtsvað",
    "Coordonnees": "64.006576, -20.220753",
    "Type": "ford",
    "Notes": "Location uncertain. Some argue it is present-day Nautavað. See further XX, YY, ZZ.",
    "lat": 64.006576,
    "lon": -20.220753,
    "leaflet_coords": [
      64.006576,
      -20.220753
    ]
  },
  {
    "ID_lieu": 8,
    "Nom_lieu": "Gunnarsholt",
    "Coordonnees": "63.861357, -20.205151",
    "Type": "farm",
    "Notes": "NB farm was moved over time (1837, 1854) because of erosion",
    "lat": 63.861357,
    "lon": -20.205151,
    "leaflet_coords": [
      63.861357,
      -20.205151
    ]
  },
  {
    "ID_lieu": 9,
    "Nom_lieu": "Gásasandur",
    "Coordonnees": "64.745366, -18.203072",
    "Type": "other",
    "Notes": "same as Sprengisandur",
    "lat": 64.745366,
    "lon": -18.203072,
    "leaflet_coords": [
      64.745366,
      -18.203072
    ]
  },
  {
    "ID_lieu": 10,
    "Nom_lieu": "Kambsnes",
    "Coordonnees": "65.06943, -21.82938",
    "Type": "peninsula",
    "Notes":"NaN",
    "lat": 65.06943,
    "lon": -21.82938,
    "leaflet_coords": [
      65.06943,
      -21.82938
    ]
  },
  {
    "ID_lieu": 11,
    "Nom_lieu": "Breiðafjörður",
    "Coordonnees": "65.244388, -23.317122",
    "Type": "fjord",
    "Notes":"NaN",
    "lat": 65.244388,
    "lon": -23.317122,
    "leaflet_coords": [
      65.244388,
      -23.317122
    ]
  },
  {
    "ID_lieu": 12,
    "Nom_lieu": "Bjarnanes",
    "Coordonnees": "64.321663, -15.247359",
    "Type": "farm",
    "Notes":"NaN",
    "lat": 64.321663,
    "lon": -15.247359,
    "leaflet_coords": [
      64.321663,
      -15.247359
    ]
  },
  {
    "ID_lieu": 13,
    "Nom_lieu": "Heydalir",
    "Coordonnees": "64.79697, -14.13182",
    "Type": "farm",
    "Notes":"NaN",
    "lat": 64.79697,
    "lon": -14.13182,
    "leaflet_coords": [
      64.79697,
      -14.13182
    ]
  },
  {
    "ID_lieu": 14,
    "Nom_lieu": "Hlíð",
    "Coordonnees": "64.27662, -20.450616",
    "Type": "farm",
    "Notes": "same as Úthlíð",
    "lat": 64.27662,
    "lon": -20.450616,
    "leaflet_coords": [
      64.27662,
      -20.450616
    ]
  },
  {
    "ID_lieu": 15,
    "Nom_lieu": "Vestfirðir",
    "Coordonnees": "65.579461, -23.411146",
    "Type": "region",
    "Notes":"NaN",
    "lat": 65.579461,
    "lon": -23.411146,
    "leaflet_coords": [
      65.579461,
      -23.411146
    ]
  },
  {
    "ID_lieu": 16,
    "Nom_lieu": "Landbrot",
    "Coordonnees": "63.733203, -17.931939",
    "Type": "other",
    "Notes":"NaN",
    "lat": 63.733203,
    "lon": -17.931939,
    "leaflet_coords": [
      63.733203,
      -17.931939
    ]
  },
  {
    "ID_lieu": 17,
    "Nom_lieu": "Höfðabrekka",
    "Coordonnees": "63.425862, -18.904571",
    "Type": "farm",
    "Notes":"NaN",
    "lat": 63.425862,
    "lon": -18.904571,
    "leaflet_coords": [
      63.425862,
      -18.904571
    ]
  },
  {
    "ID_lieu": 18,
    "Nom_lieu": "Fljótsdalshérað",
    "Coordonnees": "64.9654157575426, -15.0347900390625",
    "Type": "other",
    "Notes":"NaN",
    "lat": 64.9654157575426,
    "lon": -15.0347900390625,
    "leaflet_coords": [
      64.9654157575426,
      -15.0347900390625
    ]
  },
  {
    "ID_lieu": 19,
    "Nom_lieu": "Reyðarvatn",
    "Coordonnees": "63.853983, -20.156937",
    "Type": "farm",
    "Notes": "The lake itself no longer exists; see BB p. 61.",
    "lat": 63.853983,
    "lon": -20.156937,
    "leaflet_coords": [
      63.853983,
      -20.156937
    ]
  },
  {
    "ID_lieu": 20,
    "Nom_lieu": "Hólar",
    "Coordonnees": "63.66954, -20.421245",
    "Type": "farm",
    "Notes": "same as Álfhólar",
    "lat": 63.66954,
    "lon": -20.421245,
    "leaflet_coords": [
      63.66954,
      -20.421245
    ]
  },
  {
    "ID_lieu": 21,
    "Nom_lieu": "Veiðileysa",
    "Coordonnees": "65.935213, -21.442254",
    "Type": "fjord",
    "Notes": "same as Veiðileysufjörður",
    "lat": 65.935213,
    "lon": -21.442254,
    "leaflet_coords": [
      65.935213,
      -21.442254
    ]
  },
  {
    "ID_lieu": 22,
    "Nom_lieu": "Bersastaðir",
    "Coordonnees": "65.055185, -14.918977",
    "Type": "farm",
    "Notes": "same as Bessastaðir",
    "lat": 65.055185,
    "lon": -14.918977,
    "leaflet_coords": [
      65.055185,
      -14.918977
    ]
  },
  {
    "ID_lieu": 23,
    "Nom_lieu": "Skál",
    "Coordonnees": "63.743184, -18.273198",
    "Type": "farm",
    "Notes":"NaN",
    "lat": 63.743184,
    "lon": -18.273198,
    "leaflet_coords": [
      63.743184,
      -18.273198
    ]
  },
  {
    "ID_lieu": 24,
    "Nom_lieu": "Öxnadalsheiði",
    "Coordonnees": "65.45785, -18.780189",
    "Type": "heath",
    "Notes":"NaN",
    "lat": 65.45785,
    "lon": -18.780189,
    "leaflet_coords": [
      65.45785,
      -18.780189
    ]
  },
  {
    "ID_lieu": 25,
    "Nom_lieu": "Fljótshlíð",
    "Coordonnees": "63.734633, -20.068039",
    "Type": "other",
    "Notes":"NaN",
    "lat": 63.734633,
    "lon": -20.068039,
    "leaflet_coords": [
      63.734633,
      -20.068039
    ]
  },
  {
    "ID_lieu": 26,
    "Nom_lieu": "Þráinshaugur",
    "Coordonnees": "63.736426, -20.008728",
    "Type": "burial mound",
    "Notes": "cf BB:72: there are sources for Þráinshaugur at Grjótá but the mound is no longer visible. The placename Þráinsreitur is mentioned in one source too but this placename is now lost. See further ÁFÍ 1966: 132; ÁHÍF 1888-92: 42; SSÍ 1886: 534.",
    "lat": 63.736426,
    "lon": -20.008728,
    "leaflet_coords": [
      63.736426,
      -20.008728
    ]
  },
  {
    "ID_lieu": 27,
    "Nom_lieu": "Jamtaland",
    "Coordonnees": "63.505797, 14.186602",
    "Type": "region",
    "Notes": "District on Swedish/Norwegian border, near Trondheim.",
    "lat": 63.505797,
    "lon": 14.186602,
    "leaflet_coords": [
      63.505797,
      14.186602
    ]
  },
  {
    "ID_lieu": 28,
    "Nom_lieu": "Skaftá",
    "Coordonnees": "63.730957, -18.341085",
    "Type": "river",
    "Notes":"NaN",
    "lat": 63.730957,
    "lon": -18.341085,
    "leaflet_coords": [
      63.730957,
      -18.341085
    ]
  },
  {
    "ID_lieu": 29,
    "Nom_lieu": "Ljósavatn",
    "Coordonnees": "65.68445, -17.612189",
    "Type": "farm",
    "Notes":"NaN",
    "lat": 65.68445,
    "lon": -17.612189,
    "leaflet_coords": [
      65.68445,
      -17.612189
    ]
  },
  {
    "ID_lieu": 30,
    "Nom_lieu": "Grjótá",
    "Coordonnees": "63.736475, -20.00992",
    "Type": "farm",
    "Notes":"NaN",
    "lat": 63.736475,
    "lon": -20.00992,
    "leaflet_coords": [
      63.736475,
      -20.00992
    ]
  },
  {
    "ID_lieu": 31,
    "Nom_lieu": "Helgafell í Helgafellssveit",
    "Coordonnees": "65.041431, -22.730076",
    "Type": "farm",
    "Notes":"NaN",
    "lat": 65.041431,
    "lon": -22.730076,
    "leaflet_coords": [
      65.041431,
      -22.730076
    ]
  },
  {
    "ID_lieu": 32,
    "Nom_lieu": "Laxárbakkar",
    "Coordonnees": "64.065267, -20.31943",
    "Type": "river",
    "Notes": "same as Stóra Laxá",
    "lat": 64.065267,
    "lon": -20.31943,
    "leaflet_coords": [
      64.065267,
      -20.31943
    ]
  },
  {
    "ID_lieu": 33,
    "Nom_lieu": "Skorradalur",
    "Coordonnees": "64.490051, -21.32501",
    "Type": "valley",
    "Notes":"NaN",
    "lat": 64.490051,
    "lon": -21.32501,
    "leaflet_coords": [
      64.490051,
      -21.32501
    ]
  },
  {
    "ID_lieu": 34,
    "Nom_lieu": "Akratunga",
    "Coordonnees": "63.732231, -19.992631",
    "Type": "field",
    "Notes": "Identification problematic; lost place-name and location here in tún at Heylækur is uncertain. See further ÁFÍ 1966: 121, 123; ÁHÍF 1888: 42; BNS 103-04; Helgi Þorláksson 1989: 101-02; KK I: 179.",
    "lat": 63.732231,
    "lon": -19.992631,
    "leaflet_coords": [
      63.732231,
      -19.992631
    ]
  },
  {
    "ID_lieu": 35,
    "Nom_lieu": "Steingrímsfjörður",
    "Coordonnees": "65.669126, -21.566789",
    "Type": "fjord",
    "Notes":"NaN",
    "lat": 65.669126,
    "lon": -21.566789,
    "leaflet_coords": [
      65.669126,
      -21.566789
    ]
  },
  {
    "ID_lieu": 36,
    "Nom_lieu": "Þórsmörk",
    "Coordonnees": "63.693642, -19.465147",
    "Type": "other",
    "Notes":"NaN",
    "lat": 63.693642,
    "lon": -19.465147,
    "leaflet_coords": [
      63.693642,
      -19.465147
    ]
  },
  {
    "ID_lieu": 37,
    "Nom_lieu": "Haukadalur",
    "Coordonnees": "64.327147, -20.278657",
    "Type": "farm",
    "Notes":"NaN",
    "lat": 64.327147,
    "lon": -20.278657,
    "leaflet_coords": [
      64.327147,
      -20.278657
    ]
  },
  {
    "ID_lieu": 38,
    "Nom_lieu": "Stafafell",
    "Coordonnees": "64.418772, -14.858036",
    "Type": "farm",
    "Notes":"NaN",
    "lat": 64.418772,
    "lon": -14.858036,
    "leaflet_coords": [
      64.418772,
      -14.858036
    ]
  },
  {
    "ID_lieu": 39,
    "Nom_lieu": "Berunes",
    "Coordonnees": "64.698915, -14.255917",
    "Type": "farm",
    "Notes":"NaN",
    "lat": 64.698915,
    "lon": -14.255917,
    "leaflet_coords": [
      64.698915,
      -14.255917
    ]
  },
  {
    "ID_lieu": 40,
    "Nom_lieu": "Eyjafjöll",
    "Coordonnees": "63.55725, -19.637849",
    "Type": "mountain",
    "Notes":"NaN",
    "lat": 63.55725,
    "lon": -19.637849,
    "leaflet_coords": [
      63.55725,
      -19.637849
    ]
  },
  {
    "ID_lieu": 41,
    "Nom_lieu": "Austfirðir",
    "Coordonnees": "64.800848, -14.171581",
    "Type": "region",
    "Notes":"NaN",
    "lat": 64.800848,
    "lon": -14.171581,
    "leaflet_coords": [
      64.800848,
      -14.171581
    ]
  },
  {
    "ID_lieu": 42,
    "Nom_lieu": "Lögberg",
    "Coordonnees": "64.259847, -21.122677",
    "Type": "assembly site",
    "Notes":"NaN",
    "lat": 64.259847,
    "lon": -21.122677,
    "leaflet_coords": [
      64.259847,
      -21.122677
    ]
  },
  {
    "ID_lieu": 43,
    "Nom_lieu": "Oddi",
    "Coordonnees": "63.777001, -20.386843",
    "Type": "farm",
    "Notes":"NaN",
    "lat": 63.777001,
    "lon": -20.386843,
    "leaflet_coords": [
      63.777001,
      -20.386843
    ]
  },
  {
    "ID_lieu": 45,
    "Nom_lieu": "Kaldbakshorn",
    "Coordonnees": "65.863476, -21.301152",
    "Type": "other",
    "Notes": "NB gully Svansgil on northern face of mountain",
    "lat": 65.863476,
    "lon": -21.301152,
    "leaflet_coords": [
      65.863476,
      -21.301152
    ]
  },
  {
    "ID_lieu": 46,
    "Nom_lieu": "Beitivellir",
    "Coordonnees": "64.20478, -20.883131",
    "Type": "other",
    "Notes":"NaN",
    "lat": 64.20478,
    "lon": -20.883131,
    "leaflet_coords": [
      64.20478,
      -20.883131
    ]
  },
  {
    "ID_lieu": 47,
    "Nom_lieu": "Sælingsdalstunga",
    "Coordonnees": "65.256517, -21.789938",
    "Type": "farm",
    "Notes":"NaN",
    "lat": 65.256517,
    "lon": -21.789938,
    "leaflet_coords": [
      65.256517,
      -21.789938
    ]
  },
  {
    "ID_lieu": 48,
    "Nom_lieu": "Djúpárbakki",
    "Coordonnees": "63.920349, -17.66498",
    "Type": "farm",
    "Notes": "same as Maríubakki. Problematic identification: see Einar Ól. Sveinsson (ed. 1954:71) and Kalund (1984 IV: 83) for Maríubakki/Fljótshverfi argument; Haraldur Matthíasson (1966: 96) for identification at Hólsá, Rangárþing; also ÁHÍF 1910: 30-32, 1940: 64",
    "lat": 63.920349,
    "lon": -17.66498,
    "leaflet_coords": [
      63.920349,
      -17.66498
    ]
  },
  {
    "ID_lieu": 49,
    "Nom_lieu": "Njarðvík",
    "Coordonnees": "65.574513, -13.892527",
    "Type": "farm",
    "Notes":"NaN",
    "lat": 65.574513,
    "lon": -13.892527,
    "leaflet_coords": [
      65.574513,
      -13.892527
    ]
  },
  {
    "ID_lieu": 50,
    "Nom_lieu": "Brúará",
    "Coordonnees": "64.206855, -20.556223",
    "Type": "river",
    "Notes":"NaN",
    "lat": 64.206855,
    "lon": -20.556223,
    "leaflet_coords": [
      64.206855,
      -20.556223
    ]
  },
  {
    "ID_lieu": 51,
    "Nom_lieu": "Heinabergssandur",
    "Coordonnees": "64.283716, -15.624589",
    "Type": "other",
    "Notes": "Placename no longer used but south of Heinabergsjökull. NB farm Heinberg stood at foot of glacier",
    "lat": 64.283716,
    "lon": -15.624589,
    "leaflet_coords": [
      64.283716,
      -15.624589
    ]
  },
  {
    "ID_lieu": 52,
    "Nom_lieu": "Eyjafjörður",
    "Coordonnees": "65.728802, -18.121943",
    "Type": "fjord",
    "Notes": "eitthvað",
    "lat": 65.728802,
    "lon": -18.121943,
    "leaflet_coords": [
      65.728802,
      -18.121943
    ]
  },
  {
    "ID_lieu": 53,
    "Nom_lieu": "Reykjahólar",
    "Coordonnees": "65.449121, -22.20147",
    "Type": "farm",
    "Notes": "same as Reykhólar",
    "lat": 65.449121,
    "lon": -22.20147,
    "leaflet_coords": [
      65.449121,
      -22.20147
    ]
  },
  {
    "ID_lieu": 54,
    "Nom_lieu": "Lögur",
    "Coordonnees": "64.038395, 10.058957",
    "Type": "lake",
    "Notes": "Lögr var nefnt það vatn, sem nú heitir Mälaren. Það er mikið sem fjörður og margkvíslað (ÍF XII, 16).  ",
    "lat": 64.038395,
    "lon": 10.058957,
    "leaflet_coords": [
      64.038395,
      10.058957
    ]
  },
  {
    "ID_lieu": 55,
    "Nom_lieu": "Fellshverfi",
    "Coordonnees": "64.17228, -15.880029",
    "Type": "assembly site",
    "Notes": "same as Suðursveit",
    "lat": 64.17228,
    "lon": -15.880029,
    "leaflet_coords": [
      64.17228,
      -15.880029
    ]
  },
  {
    "ID_lieu": 56,
    "Nom_lieu": "Síða",
    "Coordonnees": "63.83056, -17.952955",
    "Type": "other",
    "Notes":"NaN",
    "lat": 63.83056,
    "lon": -17.952955,
    "leaflet_coords": [
      63.83056,
      -17.952955
    ]
  },
  {
    "ID_lieu": 57,
    "Nom_lieu": "Káragróf",
    "Coordonnees": "63.66954, -20.421245",
    "Type": "cairn",
    "Notes": "Said to be near old hjáleiga Káragerði. NB also placenames Káradæla and Káratjörn, connected with Kári's escape from the burning farmhouse.",
    "lat": 63.66954,
    "lon": -20.421245,
    "leaflet_coords": [
      63.66954,
      -20.421245
    ]
  },
  {
    "ID_lieu": 58,
    "Nom_lieu": "Hestaþingshóll",
    "Coordonnees": "63.795481, -20.146737",
    "Type": "assembly site",
    "Notes": "Tradition states horse fights were held here. See further xx.",
    "lat": 63.795481,
    "lon": -20.146737,
    "leaflet_coords": [
      63.795481,
      -20.146737
    ]
  },
  {
    "ID_lieu": 59,
    "Nom_lieu": "Barðaströnd",
    "Coordonnees": "65.462938, -23.575003",
    "Type": "bay",
    "Notes":"NaN",
    "lat": 65.462938,
    "lon": -23.575003,
    "leaflet_coords": [
      65.462938,
      -23.575003
    ]
  },
  {
    "ID_lieu": 60,
    "Nom_lieu": "Goðdalir",
    "Coordonnees": "65.330701, -19.098749",
    "Type": "farm",
    "Notes":"NaN",
    "lat": 65.330701,
    "lon": -19.098749,
    "leaflet_coords": [
      65.330701,
      -19.098749
    ]
  },
  {
    "ID_lieu": 61,
    "Nom_lieu": "Þorgeirsvað",
    "Coordonnees": "63.803018, -20.071019",
    "Type": "ford",
    "Notes": "One of few anecdotal placename explanations in Njáls saga.",
    "lat": 63.803018,
    "lon": -20.071019,
    "leaflet_coords": [
      63.803018,
      -20.071019
    ]
  },
  {
    "ID_lieu": 62,
    "Nom_lieu": "Bjarneyjar",
    "Coordonnees": "65.273868, -22.842035",
    "Type": "island",
    "Notes": "group of islands of which Heimaey is largest",
    "lat": 65.273868,
    "lon": -22.842035,
    "leaflet_coords": [
      65.273868,
      -22.842035
    ]
  },
  {
    "ID_lieu": 63,
    "Nom_lieu": "Ásólfsskáli",
    "Coordonnees": "63.573743, -19.794984",
    "Type": "farm",
    "Notes":"NaN",
    "lat": 63.573743,
    "lon": -19.794984,
    "leaflet_coords": [
      63.573743,
      -19.794984
    ]
  },
  {
    "ID_lieu": 64,
    "Nom_lieu": "Hof annað",
    "Coordonnees": "63.797302, -20.181955",
    "Type": "farm",
    "Notes": "same as  Minna-Hof",
    "lat": 63.797302,
    "lon": -20.181955,
    "leaflet_coords": [
      63.797302,
      -20.181955
    ]
  },
  {
    "ID_lieu": 65,
    "Nom_lieu": "Espihóll",
    "Coordonnees": "65.537957, -18.129113",
    "Type": "farm",
    "Notes":"NaN",
    "lat": 65.537957,
    "lon": -18.129113,
    "leaflet_coords": [
      65.537957,
      -18.129113
    ]
  },
  {
    "ID_lieu": 66,
    "Nom_lieu": "Keldur",
    "Coordonnees": "63.82172, -20.074009",
    "Type": "farm",
    "Notes":"NaN",
    "lat": 63.82172,
    "lon": -20.074009,
    "leaflet_coords": [
      63.82172,
      -20.074009
    ]
  },
  {
    "ID_lieu": 67,
    "Nom_lieu": "Hrútafjörður",
    "Coordonnees": "65.152779, -21.06759",
    "Type": "fjord",
    "Notes": "Occasionaly Veðrafjörður (e.g. Grettis saga ch. 48 in verse).",
    "lat": 65.152779,
    "lon": -21.06759,
    "leaflet_coords": [
      65.152779,
      -21.06759
    ]
  },
  {
    "ID_lieu": 68,
    "Nom_lieu": "Svanshóll",
    "Coordonnees": "65.778834, -21.537947",
    "Type": "farm",
    "Notes":"NaN",
    "lat": 65.778834,
    "lon": -21.537947,
    "leaflet_coords": [
      65.778834,
      -21.537947
    ]
  },
  {
    "ID_lieu": 69,
    "Nom_lieu": "Hof í Vopnafirði",
    "Coordonnees": "65.656665, -15.009303",
    "Type": "farm",
    "Notes":"NaN",
    "lat": 65.656665,
    "lon": -15.009303,
    "leaflet_coords": [
      65.656665,
      -15.009303
    ]
  },
  {
    "ID_lieu": 70,
    "Nom_lieu": "Geitahellur",
    "Coordonnees": "64.595388, -14.568209",
    "Type": "farm",
    "Notes": "same as Geithellur, Geithellnar",
    "lat": 64.595388,
    "lon": -14.568209,
    "leaflet_coords": [
      64.595388,
      -14.568209
    ]
  },
  {
    "ID_lieu": 71,
    "Nom_lieu": "Stotalækur",
    "Coordonnees": "63.806952, -20.101452",
    "Type": "farm",
    "Notes": "same as Stokkalækur. NB also a river",
    "lat": 63.806952,
    "lon": -20.101452,
    "leaflet_coords": [
      63.806952,
      -20.101452
    ]
  },
  {
    "ID_lieu": 72,
    "Nom_lieu": "Súlur",
    "Coordonnees": "64.351453, -21.159525",
    "Type": "mountain",
    "Notes": "same as Botnssúlur. Some mss have variant reading Súlufjöll",
    "lat": 64.351453,
    "lon": -21.159525,
    "leaflet_coords": [
      64.351453,
      -21.159525
    ]
  },
  {
    "ID_lieu": 73,
    "Nom_lieu": "Krossavík (hinn ýtri)",
    "Coordonnees": "65.7263574127368, -14.7513341903687",
    "Type": "farm",
    "Notes":"NaN",
    "lat": 65.7263574127368,
    "lon": -14.7513341903687,
    "leaflet_coords": [
      65.7263574127368,
      -14.7513341903687
    ]
  },
  {
    "ID_lieu": 74,
    "Nom_lieu": "Hörðaland",
    "Coordonnees": "60.434988, 6.007361",
    "Type": "region",
    "Notes": "Hörðaland district in Norway",
    "lat": 60.434988,
    "lon": 6.007361,
    "leaflet_coords": [
      60.434988,
      6.007361
    ]
  },
  {
    "ID_lieu": 75,
    "Nom_lieu": "Lón",
    "Coordonnees": "64.408797, -14.797155",
    "Type": "assembly site",
    "Notes":"NaN",
    "lat": 64.408797,
    "lon": -14.797155,
    "leaflet_coords": [
      64.408797,
      -14.797155
    ]
  },
  {
    "ID_lieu": 76,
    "Nom_lieu": "Saurbær",
    "Coordonnees": "65.446916, -18.210519",
    "Type": "farm",
    "Notes":"NaN",
    "lat": 65.446916,
    "lon": -18.210519,
    "leaflet_coords": [
      65.446916,
      -18.210519
    ]
  },
  {
    "ID_lieu": 77,
    "Nom_lieu": "Hvítá",
    "Coordonnees": "64.64455, -21.561",
    "Type": "river",
    "Notes":"NaN",
    "lat": 64.64455,
    "lon": -21.561,
    "leaflet_coords": [
      64.64455,
      -21.561
    ]
  },
  {
    "ID_lieu": 78,
    "Nom_lieu": "Almannagjá",
    "Coordonnees": "64.261576, -21.121944",
    "Type": "assembly site",
    "Notes":"NaN",
    "lat": 64.261576,
    "lon": -21.121944,
    "leaflet_coords": [
      64.261576,
      -21.121944
    ]
  },
  {
    "ID_lieu": 79,
    "Nom_lieu": "Otradalur",
    "Coordonnees": "65.66359, -23.565273",
    "Type": "farm",
    "Notes":"NaN",
    "lat": 65.66359,
    "lon": -23.565273,
    "leaflet_coords": [
      65.66359,
      -23.565273
    ]
  },
  {
    "ID_lieu": 80,
    "Nom_lieu": "Vellandkatla",
    "Coordonnees": "64.189206, -21.088792",
    "Type": "bay",
    "Notes": "same as Vatnsvík",
    "lat": 64.189206,
    "lon": -21.088792,
    "leaflet_coords": [
      64.189206,
      -21.088792
    ]
  },
  {
    "ID_lieu": 81,
    "Nom_lieu": "Tunga in Biskupstungur",
    "Coordonnees": "64.163294, -20.382936",
    "Type": "farm",
    "Notes": "same as Bræðratunga",
    "lat": 64.163294,
    "lon": -20.382936,
    "leaflet_coords": [
      64.163294,
      -20.382936
    ]
  },
  {
    "ID_lieu": 82,
    "Nom_lieu": "Reykjardalur",
    "Coordonnees": "64.56718, -21.48438",
    "Type": "valley",
    "Notes": "same as Lundarreykjadalur",
    "lat": 64.56718,
    "lon": -21.48438,
    "leaflet_coords": [
      64.56718,
      -21.48438
    ]
  },
  {
    "ID_lieu": 83,
    "Nom_lieu": "Laugarnes",
    "Coordonnees": "64.152613, -21.883401",
    "Type": "farm",
    "Notes":"NaN",
    "lat": 64.152613,
    "lon": -21.883401,
    "leaflet_coords": [
      64.152613,
      -21.883401
    ]
  },
  {
    "ID_lieu": 84,
    "Nom_lieu": "Skeið",
    "Coordonnees": "63.99251, -20.585734",
    "Type": "other",
    "Notes":"NaN",
    "lat": 63.99251,
    "lon": -20.585734,
    "leaflet_coords": [
      63.99251,
      -20.585734
    ]
  },
  {
    "ID_lieu": 85,
    "Nom_lieu": "Kringlumýri",
    "Coordonnees": "63.567003, -18.051694",
    "Type": "bog",
    "Notes": "Location uncertain; somewhere in Meðalland where the landscape changed greatly on account of the Skaftárelda 1783. See further BB: 205.",
    "lat": 63.567003,
    "lon": -18.051694,
    "leaflet_coords": [
      63.567003,
      -18.051694
    ]
  },
  {
    "ID_lieu": 86,
    "Nom_lieu": "Engey",
    "Coordonnees": "64.171558, -21.915363",
    "Type": "island",
    "Notes":"NaN",
    "lat": 64.171558,
    "lon": -21.915363,
    "leaflet_coords": [
      64.171558,
      -21.915363
    ]
  },
  {
    "ID_lieu": 87,
    "Nom_lieu": "Laxárdalsheiði",
    "Coordonnees": "65.211107, -21.380165",
    "Type": "heath",
    "Notes":"NaN",
    "lat": 65.211107,
    "lon": -21.380165,
    "leaflet_coords": [
      65.211107,
      -21.380165
    ]
  },
  {
    "ID_lieu": 88,
    "Nom_lieu": "Flosadalur",
    "Coordonnees": "63.781775, -19.981223",
    "Type": "valley",
    "Notes": "NB identification disputed. See further XX, YY, ZZ.",
    "lat": 63.781775,
    "lon": -19.981223,
    "leaflet_coords": [
      63.781775,
      -19.981223
    ]
  },
  {
    "ID_lieu": 89,
    "Nom_lieu": "Búlandsnes",
    "Coordonnees": "64.646114, -14.26867",
    "Type": "farm",
    "Notes": "Now abandoned. NB pn Brandsvogur on nes, associated with Þangbrandur; cf BB: 168",
    "lat": 64.646114,
    "lon": -14.26867,
    "leaflet_coords": [
      64.646114,
      -14.26867
    ]
  },
  {
    "ID_lieu": 90,
    "Nom_lieu": "Arnarbælisós",
    "Coordonnees": "63.538471, -19.73762",
    "Type": "estuary",
    "Notes": "Identification problematic. Some argue for Holtsós; others for a site to the east of Holtsós that no longer exists. See ÁFI 1972: 33, BNS 74; KKI 200-202 ofl.",
    "lat": 63.538471,
    "lon": -19.73762,
    "leaflet_coords": [
      63.538471,
      -19.73762
    ]
  },
  {
    "ID_lieu": 91,
    "Nom_lieu": "Eyjafjallajökull",
    "Coordonnees": "63.625955, -19.640123",
    "Type": "other",
    "Notes":"NaN",
    "lat": 63.625955,
    "lon": -19.640123,
    "leaflet_coords": [
      63.625955,
      -19.640123
    ]
  },
  {
    "ID_lieu": 92,
    "Nom_lieu": "Gunnarssteinn",
    "Coordonnees": "63.825033, -20.019035",
    "Type": "stone",
    "Notes": "Not identified precisely in saga but current in local tradition. //NB adjust GPS co-ords//",
    "lat": 63.825033,
    "lon": -20.019035,
    "leaflet_coords": [
      63.825033,
      -20.019035
    ]
  },
  {
    "ID_lieu": 93,
    "Nom_lieu": "Hestlækur",
    "Coordonnees": "64.038729, -20.665778",
    "Type": "river",
    "Notes": "same as Slauka",
    "lat": 64.038729,
    "lon": -20.665778,
    "leaflet_coords": [
      64.038729,
      -20.665778
    ]
  },
  {
    "ID_lieu": 94,
    "Nom_lieu": "Bassastaðir",
    "Coordonnees": "65.763615, -21.684945",
    "Type": "farm",
    "Notes":"NaN",
    "lat": 65.763615,
    "lon": -21.684945,
    "leaflet_coords": [
      65.763615,
      -21.684945
    ]
  },
  {
    "ID_lieu": 95,
    "Nom_lieu": "Kálfafell",
    "Coordonnees": "64.181009, -15.893787",
    "Type": "farm",
    "Notes":"NaN",
    "lat": 64.181009,
    "lon": -15.893787,
    "leaflet_coords": [
      64.181009,
      -15.893787
    ]
  },
  {
    "ID_lieu": 96,
    "Nom_lieu": "Hagi á Barðaströnd",
    "Coordonnees": "65.498805, -23.45742",
    "Type": "farm",
    "Notes":"NaN",
    "lat": 65.498805,
    "lon": -23.45742,
    "leaflet_coords": [
      65.498805,
      -23.45742
    ]
  },
  {
    "ID_lieu": 97,
    "Nom_lieu": "Vellir hinir efri",
    "Coordonnees": "64.264236, -21.115988",
    "Type": "assembly site",
    "Notes": "Þingvellir, between Almannagjá and Flosagjá.",
    "lat": 64.264236,
    "lon": -21.115988,
    "leaflet_coords": [
      64.264236,
      -21.115988
    ]
  },
  {
    "ID_lieu": 98,
    "Nom_lieu": "Gautavík",
    "Coordonnees": "64.731984, -14.340809",
    "Type": "farm",
    "Notes":"NaN",
    "lat": 64.731984,
    "lon": -14.340809,
    "leaflet_coords": [
      64.731984,
      -14.340809
    ]
  },
  {
    "ID_lieu": 99,
    "Nom_lieu": "Tröllaskógur",
    "Coordonnees": "63.855246, -19.916274",
    "Type": "farm",
    "Notes": "Deserted by early 18th century. See further BB p. 65-66 (poem, pin now in Þms ofl).",
    "lat": 63.855246,
    "lon": -19.916274,
    "leaflet_coords": [
      63.855246,
      -19.916274
    ]
  },
  {
    "ID_lieu": 100,
    "Nom_lieu": "Landeyjar",
    "Coordonnees": "63.648318, -20.264678",
    "Type": "other",
    "Notes": "Sometimes abbreviated as 'Eyjar'.",
    "lat": 63.648318,
    "lon": -20.264678,
    "leaflet_coords": [
      63.648318,
      -20.264678
    ]
  },
  {
    "ID_lieu": 101,
    "Nom_lieu": "Ingólfshöfði",
    "Coordonnees": "63.800279, -16.638543",
    "Type": "other",
    "Notes":"NaN",
    "lat": 63.800279,
    "lon": -16.638543,
    "leaflet_coords": [
      63.800279,
      -16.638543
    ]
  },
  {
    "ID_lieu": 102,
    "Nom_lieu": "Fossárskógar",
    "Coordonnees": "63.528729, -19.500065",
    "Type": "farm",
    "Notes": "same as Skógar",
    "lat": 63.528729,
    "lon": -19.500065,
    "leaflet_coords": [
      63.528729,
      -19.500065
    ]
  },
  {
    "ID_lieu": 103,
    "Nom_lieu": "Reykjardalur",
    "Coordonnees": "65.752579, -17.401133",
    "Type": "valley",
    "Notes":"NaN",
    "lat": 65.752579,
    "lon": -17.401133,
    "leaflet_coords": [
      65.752579,
      -17.401133
    ]
  },
  {
    "ID_lieu": 104,
    "Nom_lieu": "Hnappavellir",
    "Coordonnees": "63.905534, -16.594809",
    "Type": "farm",
    "Notes":"NaN",
    "lat": 63.905534,
    "lon": -16.594809,
    "leaflet_coords": [
      63.905534,
      -16.594809
    ]
  },
  {
    "ID_lieu": 105,
    "Nom_lieu": "Gjábakki",
    "Coordonnees": "64.232576, -21.028767",
    "Type": "farm",
    "Notes":"NaN",
    "lat": 64.232576,
    "lon": -21.028767,
    "leaflet_coords": [
      64.232576,
      -21.028767
    ]
  },
  {
    "ID_lieu": 106,
    "Nom_lieu": "Öxará",
    "Coordonnees": "64.265862, -21.118744",
    "Type": "river",
    "Notes":"NaN",
    "lat": 64.265862,
    "lon": -21.118744,
    "leaflet_coords": [
      64.265862,
      -21.118744
    ]
  },
  {
    "ID_lieu": 107,
    "Nom_lieu": "Hernar",
    "Coordonnees": "60.68749, 4.759347",
    "Type": "island",
    "Notes":"NaN",
    "lat": 60.68749,
    "lon": 4.759347,
    "leaflet_coords": [
      60.68749,
      4.759347
    ]
  },
  {
    "ID_lieu": 108,
    "Nom_lieu": "Höskuldsstaðir in Laxárdalur",
    "Coordonnees": "65.11143, -21.69485",
    "Type": "farm",
    "Notes":"NaN",
    "lat": 65.11143,
    "lon": -21.69485,
    "leaflet_coords": [
      65.11143,
      -21.69485
    ]
  },
  {
    "ID_lieu": 109,
    "Nom_lieu": "Mýrdalur",
    "Coordonnees": "63.45258, -19.064881",
    "Type": "other",
    "Notes": "sometimes Mýdalur in MI texts",
    "lat": 63.45258,
    "lon": -19.064881,
    "leaflet_coords": [
      63.45258,
      -19.064881
    ]
  },
  {
    "ID_lieu": 110,
    "Nom_lieu": "Hvítanes",
    "Coordonnees": "63.699866, -20.206716",
    "Type": "farm",
    "Notes":"NaN",
    "lat": 63.699866,
    "lon": -20.206716,
    "leaflet_coords": [
      63.699866,
      -20.206716
    ]
  },
  {
    "ID_lieu": 111,
    "Nom_lieu": "Reykir (Biskupstungu)",
    "Coordonnees": "64.235857, -20.515441",
    "Type": "farm",
    "Notes": "same as Efri-Reykir and Syðrisame as Reykir",
    "lat": 64.235857,
    "lon": -20.515441,
    "leaflet_coords": [
      64.235857,
      -20.515441
    ]
  },
  {
    "ID_lieu": 112,
    "Nom_lieu": "Völlur",
    "Coordonnees": "63.7861, -20.1398",
    "Type": "farm",
    "Notes":"NaN",
    "lat": 63.7861,
    "lon": -20.1398,
    "leaflet_coords": [
      63.7861,
      -20.1398
    ]
  },
  {
    "ID_lieu": 113,
    "Nom_lieu": "Grímsnes",
    "Coordonnees": "64.051405, -20.890022",
    "Type": "peninsula",
    "Notes": "same as Grímsnes-/Grafningshreppur",
    "lat": 64.051405,
    "lon": -20.890022,
    "leaflet_coords": [
      64.051405,
      -20.890022
    ]
  },
  {
    "ID_lieu": 114,
    "Nom_lieu": "Þingvellir",
    "Coordonnees": "64.25977, -21.1227",
    "Type": "assembly site",
    "Notes": "Hnit á Lögbergi",
    "lat": 64.25977,
    "lon": -21.1227,
    "leaflet_coords": [
      64.25977,
      -21.1227
    ]
  },
  {
    "ID_lieu": 115,
    "Nom_lieu": "Bergþórshvoll",
    "Coordonnees": "63.637406, -20.330133",
    "Type": "farm",
    "Notes":"NaN",
    "lat": 63.637406,
    "lon": -20.330133,
    "leaflet_coords": [
      63.637406,
      -20.330133
    ]
  },
  {
    "ID_lieu": 116,
    "Nom_lieu": "Meðalfellsströnd",
    "Coordonnees": "65.131752, -22.150669",
    "Type": "coast",
    "Notes": "same as Fellströnd",
    "lat": 65.131752,
    "lon": -22.150669,
    "leaflet_coords": [
      65.131752,
      -22.150669
    ]
  },
  {
    "ID_lieu": 117,
    "Nom_lieu": "Sámsstaðir",
    "Coordonnees": "63.734775, -20.112704",
    "Type": "farm",
    "Notes": "same as Vestur-, Mið- and Austur-Sámsstaðir today",
    "lat": 63.734775,
    "lon": -20.112704,
    "leaflet_coords": [
      63.734775,
      -20.112704
    ]
  },
  {
    "ID_lieu": 118,
    "Nom_lieu": "Miðfjörður",
    "Coordonnees": "65.336919, -20.913569",
    "Type": "other",
    "Notes":"NaN",
    "lat": 65.336919,
    "lon": -20.913569,
    "leaflet_coords": [
      65.336919,
      -20.913569
    ]
  },
  {
    "ID_lieu": 119,
    "Nom_lieu": "Hjarðarholt í Laxárdal",
    "Coordonnees": "65.123522, -21.704633",
    "Type": "farm",
    "Notes":"NaN",
    "lat": 65.123522,
    "lon": -21.704633,
    "leaflet_coords": [
      65.123522,
      -21.704633
    ]
  },
  {
    "ID_lieu": 120,
    "Nom_lieu": "Rangá eystri",
    "Coordonnees": "63.764726, -20.345812",
    "Type": "river",
    "Notes": "same as Eystri-Rangá rather than Ytri-Rangá. Source at Rangárbotnar near Laufafell; runs into Þverá.",
    "lat": 63.764726,
    "lon": -20.345812,
    "leaflet_coords": [
      63.764726,
      -20.345812
    ]
  },
  {
    "ID_lieu": 121,
    "Nom_lieu": "Breiðá",
    "Coordonnees": "64.043498, -16.40028",
    "Type": "farm",
    "Notes": "NB see further BB:186 on settlement and desertion due to glacial advance. NB also Þorbergur Þórðarson verse about Kári and Breiðá.",
    "lat": 64.043498,
    "lon": -16.40028,
    "leaflet_coords": [
      64.043498,
      -16.40028
    ]
  },
  {
    "ID_lieu": 122,
    "Nom_lieu": "Gulaþing",
    "Coordonnees": "60.981075, 5.075361",
    "Type": "assembly site",
    "Notes": "GPS co-ords for medieval Celtic cross by church in Eivindvik",
    "lat": 60.981075,
    "lon": 5.075361,
    "leaflet_coords": [
      60.981075,
      5.075361
    ]
  },
  {
    "ID_lieu": 123,
    "Nom_lieu": "Kirkjubær",
    "Coordonnees": "63.828233, -20.2318",
    "Type": "farm",
    "Notes": "same as Vestri- and Eystri-Kirkjubær",
    "lat": 63.828233,
    "lon": -20.2318,
    "leaflet_coords": [
      63.828233,
      -20.2318
    ]
  },
  {
    "ID_lieu": 124,
    "Nom_lieu": "Lómagnúpur",
    "Coordonnees": "63.9732, -17.516444",
    "Type": "other",
    "Notes":"NaN",
    "lat": 63.9732,
    "lon": -17.516444,
    "leaflet_coords": [
      63.9732,
      -17.516444
    ]
  },
  {
    "ID_lieu": 125,
    "Nom_lieu": "Álftafjörður",
    "Coordonnees": "64.566843, -14.458881",
    "Type": "assembly site",
    "Notes":"NaN",
    "lat": 64.566843,
    "lon": -14.458881,
    "leaflet_coords": [
      64.566843,
      -14.458881
    ]
  },
  {
    "ID_lieu": 126,
    "Nom_lieu": "Norðurárdalur",
    "Coordonnees": "64.833165, -21.292035",
    "Type": "valley",
    "Notes":"NaN",
    "lat": 64.833165,
    "lon": -21.292035,
    "leaflet_coords": [
      64.833165,
      -21.292035
    ]
  },
  {
    "ID_lieu": 127,
    "Nom_lieu": "Dalir",
    "Coordonnees": "65.1748445958134, -22.0202220417559",
    "Type": "region",
    "Notes":"NaN",
    "lat": 65.1748445958134,
    "lon": -22.0202220417559,
    "leaflet_coords": [
      65.1748445958134,
      -22.0202220417559
    ]
  },
  {
    "ID_lieu": 128,
    "Nom_lieu": "Seljalandsmúli",
    "Coordonnees": "63.613693, -19.989771",
    "Type": "other",
    "Notes":"NaN",
    "lat": 63.613693,
    "lon": -19.989771,
    "leaflet_coords": [
      63.613693,
      -19.989771
    ]
  },
  {
    "ID_lieu": 129,
    "Nom_lieu": "Valþjófsstaðir",
    "Coordonnees": "65.022209, -14.977168",
    "Type": "farm",
    "Notes": "Famous 13th-c. wooden church doors with carved circular panels",
    "lat": 65.022209,
    "lon": -14.977168,
    "leaflet_coords": [
      65.022209,
      -14.977168
    ]
  },
  {
    "ID_lieu": 130,
    "Nom_lieu": "Berufjörður",
    "Coordonnees": "64.702701, -14.344125",
    "Type": "fjord",
    "Notes":"NaN",
    "lat": 64.702701,
    "lon": -14.344125,
    "leaflet_coords": [
      64.702701,
      -14.344125
    ]
  },
  {
    "ID_lieu": 131,
    "Nom_lieu": "Möðruvellir",
    "Coordonnees": "65.451615, -18.162786",
    "Type": "farm",
    "Notes":"NaN",
    "lat": 65.451615,
    "lon": -18.162786,
    "leaflet_coords": [
      65.451615,
      -18.162786
    ]
  },
  {
    "ID_lieu": 132,
    "Nom_lieu": "Kirkjubær á Síðu",
    "Coordonnees": "63.791262, -18.050357",
    "Type": "farm",
    "Notes": "same as Kirkjubæjarklaustur",
    "lat": 63.791262,
    "lon": -18.050357,
    "leaflet_coords": [
      63.791262,
      -18.050357
    ]
  },
  {
    "ID_lieu": 133,
    "Nom_lieu": "Rauðaskriður",
    "Coordonnees": "63.676007, -19.943225",
    "Type": "hill",
    "Notes": "Woods may have been on southeastern side of Stóra-Dímon (BB: 61). Some believe Rauðuskriður simply to be the old name for Dímon. See x, y, z.",
    "lat": 63.676007,
    "lon": -19.943225,
    "leaflet_coords": [
      63.676007,
      -19.943225
    ]
  },
  {
    "ID_lieu": 134,
    "Nom_lieu": "Sæmundarhlíð",
    "Coordonnees": "65.616843, -19.616385",
    "Type": "hill",
    "Notes":"NaN",
    "lat": 65.616843,
    "lon": -19.616385,
    "leaflet_coords": [
      65.616843,
      -19.616385
    ]
  },
  {
    "ID_lieu": 135,
    "Nom_lieu": "Hrútsstaðir",
    "Coordonnees": "65.069466666667, -21.774833333333",
    "Type": "farm",
    "Notes":"NaN",
    "lat": 65.069466666667,
    "lon": -21.774833333333,
    "leaflet_coords": [
      65.069466666667,
      -21.774833333333
    ]
  },
  {
    "ID_lieu": 136,
    "Nom_lieu": "Þjórsárdalur",
    "Coordonnees": "64.139425, -19.826016",
    "Type": "valley",
    "Notes":"NaN",
    "lat": 64.139425,
    "lon": -19.826016,
    "leaflet_coords": [
      64.139425,
      -19.826016
    ]
  },
  {
    "ID_lieu": 137,
    "Nom_lieu": "Kerlingardalsá",
    "Coordonnees": "63.438964, -18.908105",
    "Type": "river",
    "Notes":"NaN",
    "lat": 63.438964,
    "lon": -18.908105,
    "leaflet_coords": [
      63.438964,
      -18.908105
    ]
  },
  {
    "ID_lieu": 138,
    "Nom_lieu": "Laxárdalur í Dölum",
    "Coordonnees": "65.11685, -21.6882",
    "Type": "valley",
    "Notes":"NaN",
    "lat": 65.11685,
    "lon": -21.6882,
    "leaflet_coords": [
      65.11685,
      -21.6882
    ]
  },
  {
    "ID_lieu": 139,
    "Nom_lieu": "Reyðarmúli",
    "Coordonnees": "64.216628, -20.898516",
    "Type": "other",
    "Notes": "same as Reyðarbarmur",
    "lat": 64.216628,
    "lon": -20.898516,
    "leaflet_coords": [
      64.216628,
      -20.898516
    ]
  },
  {
    "ID_lieu": 140,
    "Nom_lieu": "Hornafjörður",
    "Coordonnees": "64.109241, -16.103513",
    "Type": "fjord",
    "Notes":"NaN",
    "lat": 64.109241,
    "lon": -16.103513,
    "leaflet_coords": [
      64.109241,
      -16.103513
    ]
  },
  {
    "ID_lieu": 141,
    "Nom_lieu": "Haukadalur",
    "Coordonnees": "65.055113, -21.57555",
    "Type": "valley",
    "Notes":"NaN",
    "lat": 65.055113,
    "lon": -21.57555,
    "leaflet_coords": [
      65.055113,
      -21.57555
    ]
  },
  {
    "ID_lieu": 142,
    "Nom_lieu": "Iceland",
    "Coordonnees": "65.012851, -18.70615",
    "Type": "country",
    "Notes":"NaN",
    "lat": 65.012851,
    "lon": -18.70615,
    "leaflet_coords": [
      65.012851,
      -18.70615
    ]
  },
  {
    "ID_lieu": 143,
    "Nom_lieu": "Dyrhólmar",
    "Coordonnees": "63.4161, -19.156836",
    "Type": "farm",
    "Notes": "same as Dyrhólar",
    "lat": 63.4161,
    "lon": -19.156836,
    "leaflet_coords": [
      63.4161,
      -19.156836
    ]
  },
  {
    "ID_lieu": 144,
    "Nom_lieu": "Hámundarstaðir",
    "Coordonnees": "63.868948, -18.489303",
    "Type": "farm",
    "Notes": "identification uncertain, poss near Leiðólfsstaðir in Síða skv BB",
    "lat": 63.868948,
    "lon": -18.489303,
    "leaflet_coords": [
      63.868948,
      -18.489303
    ]
  },
  {
    "ID_lieu": 145,
    "Nom_lieu": "Hallbjarnarvörður",
    "Coordonnees": "64.43237, -20.98712",
    "Type": "cairn",
    "Notes":"NaN",
    "lat": 64.43237,
    "lon": -20.98712,
    "leaflet_coords": [
      64.43237,
      -20.98712
    ]
  },
  {
    "ID_lieu": 146,
    "Nom_lieu": "Þingskálaþing",
    "Coordonnees": "63.924458, -20.195558",
    "Type": "assembly site",
    "Notes":"NaN",
    "lat": 63.924458,
    "lon": -20.195558,
    "leaflet_coords": [
      63.924458,
      -20.195558
    ]
  },
  {
    "ID_lieu": 147,
    "Nom_lieu": "Mörk",
    "Coordonnees": "63.703754, -19.492733",
    "Type": "farm",
    "Notes": "same as Kápa? See XX, YY, ZZ.",
    "lat": 63.703754,
    "lon": -19.492733,
    "leaflet_coords": [
      63.703754,
      -19.492733
    ]
  },
  {
    "ID_lieu": 148,
    "Nom_lieu": "Hrappsstaðir",
    "Coordonnees": "63.796873, -19.943298",
    "Type": "farm",
    "Notes":"NaN",
    "lat": 63.796873,
    "lon": -19.943298,
    "leaflet_coords": [
      63.796873,
      -19.943298
    ]
  },
  {
    "ID_lieu": 149,
    "Nom_lieu": "Lónsheiði",
    "Coordonnees": "64.47578, -14.610961",
    "Type": "heath",
    "Notes":"NaN",
    "lat": 64.47578,
    "lon": -14.610961,
    "leaflet_coords": [
      64.47578,
      -14.610961
    ]
  },
  {
    "ID_lieu": 150,
    "Nom_lieu": "Lundur",
    "Coordonnees": "64.552043, -21.379667",
    "Type": "farm",
    "Notes":"NaN",
    "lat": 64.552043,
    "lon": -21.379667,
    "leaflet_coords": [
      64.552043,
      -21.379667
    ]
  },
  {
    "ID_lieu": 151,
    "Nom_lieu": "Lagarfljót",
    "Coordonnees": "65.116064, -14.739751",
    "Type": "lake",
    "Notes":"NaN",
    "lat": 65.116064,
    "lon": -14.739751,
    "leaflet_coords": [
      65.116064,
      -14.739751
    ]
  },
  {
    "ID_lieu": 152,
    "Nom_lieu": "Þórólfsfell",
    "Coordonnees": "63.706432, -19.685891",
    "Type": "hill",
    "Notes": "NB mountain and farm",
    "lat": 63.706432,
    "lon": -19.685891,
    "leaflet_coords": [
      63.706432,
      -19.685891
    ]
  },
  {
    "ID_lieu": 153,
    "Nom_lieu": "Holtavörðuheiði",
    "Coordonnees": "65.028171, -21.062852",
    "Type": "heath",
    "Notes":"NaN",
    "lat": 65.028171,
    "lon": -21.062852,
    "leaflet_coords": [
      65.028171,
      -21.062852
    ]
  },
  {
    "ID_lieu": 154,
    "Nom_lieu": "Þverfell",
    "Coordonnees": "64.472242, -21.093711",
    "Type": "mountain",
    "Notes": "NB Þverfell is also the name of a farm NW of the mountain",
    "lat": 64.472242,
    "lon": -21.093711,
    "leaflet_coords": [
      64.472242,
      -21.093711
    ]
  },
  {
    "ID_lieu": 155,
    "Nom_lieu": "Byskupstunga",
    "Coordonnees": "64.142324, -20.549258",
    "Type": "assembly site",
    "Notes":"NaN",
    "lat": 64.142324,
    "lon": -20.549258,
    "leaflet_coords": [
      64.142324,
      -20.549258
    ]
  },
  {
    "ID_lieu": 156,
    "Nom_lieu": "Breiðdalur",
    "Coordonnees": "64.815376, -14.239634",
    "Type": "valley",
    "Notes":"NaN",
    "lat": 64.815376,
    "lon": -14.239634,
    "leaflet_coords": [
      64.815376,
      -14.239634
    ]
  },
  {
    "ID_lieu": 157,
    "Nom_lieu": "Öxaráhólmi",
    "Coordonnees": "64.259315, -21.120035",
    "Type": "island",
    "Notes": "Site where duels took place before they were banned in 10XX",
    "lat": 64.259315,
    "lon": -21.120035,
    "leaflet_coords": [
      64.259315,
      -21.120035
    ]
  },
  {
    "ID_lieu": 158,
    "Nom_lieu": "Knafahólar",
    "Coordonnees": "63.85083, -20.073149",
    "Type": "hill",
    "Notes":"NaN",
    "lat": 63.85083,
    "lon": -20.073149,
    "leaflet_coords": [
      63.85083,
      -20.073149
    ]
  },
  {
    "ID_lieu": 159,
    "Nom_lieu": "Þríhyrningur",
    "Coordonnees": "63.787439, -19.974491",
    "Type": "mountain",
    "Notes":"NaN",
    "lat": 63.787439,
    "lon": -19.974491,
    "leaflet_coords": [
      63.787439,
      -19.974491
    ]
  },
  {
    "ID_lieu": 160,
    "Nom_lieu": "Stokkssund",
    "Coordonnees": "59.326709, 18.068386",
    "Type": "estuary",
    "Notes": "Stokksund (svo X; Stokka-(?) O; sl. Z) mun vera aðalós Lagarins, sem nú heitir Norrström og liggur í gegnum Stokkhólm. Sbr. Ísl. fornr. XXVII, 7-9 (ÍF XII, 17). ",
    "lat": 59.326709,
    "lon": 18.068386,
    "leaflet_coords": [
      59.326709,
      18.068386
    ]
  },
  {
    "ID_lieu": 161,
    "Nom_lieu": "Sviðinhornadalur",
    "Coordonnees": "64.732225, -14.79768",
    "Type": "valley",
    "Notes": "same as upper part of Hamarsdalur?",
    "lat": 64.732225,
    "lon": -14.79768,
    "leaflet_coords": [
      64.732225,
      -14.79768
    ]
  },
  {
    "ID_lieu": 162,
    "Nom_lieu": "Gunnarshólmi",
    "Coordonnees": "63.677605, -20.00616",
    "Type": "island",
    "Notes": "Precise location uncertain, see BB 1999: 28; nevertheless, one of the most significant Njáls saga sites for saga pilgrims etc.",
    "lat": 63.677605,
    "lon": -20.00616,
    "leaflet_coords": [
      63.677605,
      -20.00616
    ]
  },
  {
    "ID_lieu": 163,
    "Nom_lieu": "Fiskivötn",
    "Coordonnees": "64.193924, -18.642473",
    "Type": "assembly site",
    "Notes": "same as Veiðivötn",
    "lat": 64.193924,
    "lon": -18.642473,
    "leaflet_coords": [
      64.193924,
      -18.642473
    ]
  },
  {
    "ID_lieu": 164,
    "Nom_lieu": "Hreppar",
    "Coordonnees": "64.171719, -19.899518",
    "Type": "assembly site",
    "Notes": "same as Gnúpverjahreppur and Hrunamannahreppur; lies between Hvítá and Þjórsá",
    "lat": 64.171719,
    "lon": -19.899518,
    "leaflet_coords": [
      64.171719,
      -19.899518
    ]
  },
  {
    "ID_lieu": 165,
    "Nom_lieu": "Móeiðarhvoll",
    "Coordonnees": "63.757308, -20.350172",
    "Type": "farm",
    "Notes":"NaN",
    "lat": 63.757308,
    "lon": -20.350172,
    "leaflet_coords": [
      63.757308,
      -20.350172
    ]
  },
  {
    "ID_lieu": 166,
    "Nom_lieu": "Sólheimar",
    "Coordonnees": "63.495168, -19.318874",
    "Type": "farm",
    "Notes": "same as Ytri-Sólheimar and Eystri-Sólheimar",
    "lat": 63.495168,
    "lon": -19.318874,
    "leaflet_coords": [
      63.495168,
      -19.318874
    ]
  },
  {
    "ID_lieu": 167,
    "Nom_lieu": "Kerlingardalur",
    "Coordonnees": "63.444197, -18.892273",
    "Type": "farm",
    "Notes":"NaN",
    "lat": 63.444197,
    "lon": -18.892273,
    "leaflet_coords": [
      63.444197,
      -18.892273
    ]
  },
  {
    "ID_lieu": 168,
    "Nom_lieu": "Holt",
    "Coordonnees": "63.55091, -19.792196",
    "Type": "farm",
    "Notes":"NaN",
    "lat": 63.55091,
    "lon": -19.792196,
    "leaflet_coords": [
      63.55091,
      -19.792196
    ]
  },
  {
    "ID_lieu": 169,
    "Nom_lieu": "Svínafell",
    "Coordonnees": "63.982317, -16.852654",
    "Type": "farm",
    "Notes":"NaN",
    "lat": 63.982317,
    "lon": -16.852654,
    "leaflet_coords": [
      63.982317,
      -16.852654
    ]
  },
  {
    "ID_lieu": 170,
    "Nom_lieu": "Borgarhöfn 1",
    "Coordonnees": "64.193584, -15.810416",
    "Type": "farm",
    "Notes":"NaN",
    "lat": 64.193584,
    "lon": -15.810416,
    "leaflet_coords": [
      64.193584,
      -15.810416
    ]
  },
  {
    "ID_lieu": 171,
    "Nom_lieu": "Sandgil",
    "Coordonnees": "63.851339, -19.997477",
    "Type": "farm",
    "Notes": "Landnámsjörð. Deserted by early 18th century. See further BB p. 62.",
    "lat": 63.851339,
    "lon": -19.997477,
    "leaflet_coords": [
      63.851339,
      -19.997477
    ]
  },
  {
    "ID_lieu": 172,
    "Nom_lieu": "Öxarhraun",
    "Coordonnees": "64.758744, -15.073898",
    "Type": "other",
    "Notes":"NaN",
    "lat": 64.758744,
    "lon": -15.073898,
    "leaflet_coords": [
      64.758744,
      -15.073898
    ]
  },
  {
    "ID_lieu": 173,
    "Nom_lieu": "Hvammsfjörður",
    "Coordonnees": "65.078122, -22.103029",
    "Type": "fjord",
    "Notes":"NaN",
    "lat": 65.078122,
    "lon": -22.103029,
    "leaflet_coords": [
      65.078122,
      -22.103029
    ]
  },
  {
    "ID_lieu": 174,
    "Nom_lieu": "Reykjanes",
    "Coordonnees": "65.457905, -22.229432",
    "Type": "region",
    "Notes":"NaN",
    "lat": 65.457905,
    "lon": -22.229432,
    "leaflet_coords": [
      65.457905,
      -22.229432
    ]
  },
  {
    "ID_lieu": 175,
    "Nom_lieu": "Kaldbakur",
    "Coordonnees": "65.877748, -21.314367",
    "Type": "farm",
    "Notes":"NaN",
    "lat": 65.877748,
    "lon": -21.314367,
    "leaflet_coords": [
      65.877748,
      -21.314367
    ]
  },
  {
    "ID_lieu": 176,
    "Nom_lieu": "Breiðdalsheiði",
    "Coordonnees": "64.909355, -14.610472",
    "Type": "assembly site",
    "Notes":"NaN",
    "lat": 64.909355,
    "lon": -14.610472,
    "leaflet_coords": [
      64.909355,
      -14.610472
    ]
  },
  {
    "ID_lieu": 177,
    "Nom_lieu": "Arnarstakksheiði 1",
    "Coordonnees": "63.445485, -18.953645",
    "Type": "heath",
    "Notes":"NaN",
    "lat": 63.445485,
    "lon": -18.953645,
    "leaflet_coords": [
      63.445485,
      -18.953645
    ]
  },
  {
    "ID_lieu": 178,
    "Nom_lieu": "Hrafnkelsstaðir",
    "Coordonnees": "65.05128, -14.885914",
    "Type": "farm",
    "Notes":"NaN",
    "lat": 65.05128,
    "lon": -14.885914,
    "leaflet_coords": [
      65.05128,
      -14.885914
    ]
  },
  {
    "ID_lieu": 179,
    "Nom_lieu": "Reykir",
    "Coordonnees": "64.043906, -20.449899",
    "Type": "farm",
    "Notes":"NaN",
    "lat": 64.043906,
    "lon": -20.449899,
    "leaflet_coords": [
      64.043906,
      -20.449899
    ]
  },
  {
    "ID_lieu": 180,
    "Nom_lieu": "Goðaland",
    "Coordonnees": "63.666183, -19.43746",
    "Type": "region",
    "Notes":"NaN",
    "lat": 63.666183,
    "lon": -19.43746,
    "leaflet_coords": [
      63.666183,
      -19.43746
    ]
  },
  {
    "ID_lieu": 181,
    "Nom_lieu": "Selárdalur",
    "Coordonnees": "65.834723, -21.798282",
    "Type": "valley",
    "Notes":"NaN",
    "lat": 65.834723,
    "lon": -21.798282,
    "leaflet_coords": [
      65.834723,
      -21.798282
    ]
  },
  {
    "ID_lieu": 182,
    "Nom_lieu": "Skagafjörður",
    "Coordonnees": "65.796189, -19.497358",
    "Type": "fjord",
    "Notes":"NaN",
    "lat": 65.796189,
    "lon": -19.497358,
    "leaflet_coords": [
      65.796189,
      -19.497358
    ]
  },
  {
    "ID_lieu": 183,
    "Nom_lieu": "Fell 1",
    "Coordonnees": "65.124412, -22.187181",
    "Type": "farm",
    "Notes": "same as Staðarfell",
    "lat": 65.124412,
    "lon": -22.187181,
    "leaflet_coords": [
      65.124412,
      -22.187181
    ]
  },
  {
    "ID_lieu": 184,
    "Nom_lieu": "Varmalækur",
    "Coordonnees": "64.60774, -21.524484",
    "Type": "farm",
    "Notes":"NaN",
    "lat": 64.60774,
    "lon": -21.524484,
    "leaflet_coords": [
      64.60774,
      -21.524484
    ]
  },
  {
    "ID_lieu": 185,
    "Nom_lieu": "Mosfell",
    "Coordonnees": "64.186279, -21.618889",
    "Type": "farm",
    "Notes":"NaN",
    "lat": 64.186279,
    "lon": -21.618889,
    "leaflet_coords": [
      64.186279,
      -21.618889
    ]
  },
  {
    "ID_lieu": 186,
    "Nom_lieu": "Austfirðingafjórðungur",
    "Coordonnees": "65.011353, -14.102965",
    "Type": "region",
    "Notes":"NaN",
    "lat": 65.011353,
    "lon": -14.102965,
    "leaflet_coords": [
      65.011353,
      -14.102965
    ]
  },
  {
    "ID_lieu": 187,
    "Nom_lieu": "Meðalland",
    "Coordonnees": "63.561994, -18.138597",
    "Type": "other",
    "Notes":"NaN",
    "lat": 63.561994,
    "lon": -18.138597,
    "leaflet_coords": [
      63.561994,
      -18.138597
    ]
  },
  {
    "ID_lieu": 188,
    "Nom_lieu": "Mörk",
    "Coordonnees": "63.665073, -19.899582",
    "Type": "farm",
    "Notes": "same as Stóra-Mörk",
    "lat": 63.665073,
    "lon": -19.899582,
    "leaflet_coords": [
      63.665073,
      -19.899582
    ]
  },
  {
    "ID_lieu": 189,
    "Nom_lieu": "Þríhyrningshálsar",
    "Coordonnees": "63.762419, -20.029808",
    "Type": "other",
    "Notes":"NaN",
    "lat": 63.762419,
    "lon": -20.029808,
    "leaflet_coords": [
      63.762419,
      -20.029808
    ]
  },
  {
    "ID_lieu": 190,
    "Nom_lieu": "Þvottá",
    "Coordonnees": "64.508486, -14.507609",
    "Type": "farm",
    "Notes":"NaN",
    "lat": 64.508486,
    "lon": -14.507609,
    "leaflet_coords": [
      64.508486,
      -14.507609
    ]
  },
  {
    "ID_lieu": 191,
    "Nom_lieu": "Norway",
    "Coordonnees": "60.8877000420779, 8.701171875",
    "Type": "country",
    "Notes":"NaN",
    "lat": 60.8877000420779,
    "lon": 8.701171875,
    "leaflet_coords": [
      60.8877000420779,
      8.701171875
    ]
  },
  {
    "ID_lieu": 192,
    "Nom_lieu": "Öldusteinn",
    "Coordonnees": "63.690296, -19.599448",
    "Type": "stone",
    "Notes": "identification uncertain though some reckon it to be móberg cliff on Markarfljót plain not far from Steinhóltsá skv BB",
    "lat": 63.690296,
    "lon": -19.599448,
    "leaflet_coords": [
      63.690296,
      -19.599448
    ]
  },
  {
    "ID_lieu": 193,
    "Nom_lieu": "Baugagil",
    "Coordonnees": "64.471033, -21.137275",
    "Type": "gully",
    "Notes": "NB identification uncertain. See further Sigurður Vigfússon in ÁHÍF 1884-85, 104",
    "lat": 64.471033,
    "lon": -21.137275,
    "leaflet_coords": [
      64.471033,
      -21.137275
    ]
  },
  {
    "ID_lieu": 194,
    "Nom_lieu": "Berjanes",
    "Coordonnees": "63.688341, -20.176445",
    "Type": "farm",
    "Notes": "same as Gamla-Berjanes. Farm was moved from here to site of modern-day Berjanes.",
    "lat": 63.688341,
    "lon": -20.176445,
    "leaflet_coords": [
      63.688341,
      -20.176445
    ]
  },
  {
    "ID_lieu": 195,
    "Nom_lieu": "Ljótárdalur",
    "Coordonnees": "65.761855, -21.847945",
    "Type": "valley",
    "Notes": "Not named elsewhere in MI sources. same as Staðardalur skv. BB",
    "lat": 65.761855,
    "lon": -21.847945,
    "leaflet_coords": [
      65.761855,
      -21.847945
    ]
  },
  {
    "ID_lieu": 196,
    "Nom_lieu": "Bláskógaheiði",
    "Coordonnees": "64.38066, -20.97844",
    "Type": "heath",
    "Notes":"NaN",
    "lat": 64.38066,
    "lon": -20.97844,
    "leaflet_coords": [
      64.38066,
      -20.97844
    ]
  },
  {
    "ID_lieu": 197,
    "Nom_lieu": "Vopnafjörður",
    "Coordonnees": "65.767723, -14.732775",
    "Type": "assembly site",
    "Notes":"NaN",
    "lat": 65.767723,
    "lon": -14.732775,
    "leaflet_coords": [
      65.767723,
      -14.732775
    ]
  },
  {
    "ID_lieu": 198,
    "Nom_lieu": "Danmörk",
    "Coordonnees": "56.002194, 8.805019",
    "Type": "country",
    "Notes":"NaN",
    "lat": 56.002194,
    "lon": 8.805019,
    "leaflet_coords": [
      56.002194,
      8.805019
    ]
  },
  {
    "ID_lieu": 199,
    "Nom_lieu": "Breiðafjarðardalir",
    "Coordonnees": "65.07848, -21.91662",
    "Type": "region",
    "Notes": "Loosely, Dalir and area around eastern end of Hvammsfjörður. \nGrettis saga ch. 67: ok hafðisk við í Austrárdal b.v. 152, 10. Sbr. athugasemd bl. 220 (ÍF VII, 219). ",
    "lat": 65.07848,
    "lon": -21.91662,
    "leaflet_coords": [
      65.07848,
      -21.91662
    ]
  },
  {
    "ID_lieu": 200,
    "Nom_lieu": "Hof",
    "Coordonnees": "63.791331, -20.198193",
    "Type": "farm",
    "Notes": "same as Stóra-Hof. Landnámsjörð (Ketill hængur Þorkelsson)",
    "lat": 63.791331,
    "lon": -20.198193,
    "leaflet_coords": [
      63.791331,
      -20.198193
    ]
  },
  {
    "ID_lieu": 201,
    "Nom_lieu": "Eyrar",
    "Coordonnees": "63.861632, -21.142065",
    "Type": "harbour",
    "Notes": "same as Eyrarbakki. Main port for south of Iceland for many centuries.",
    "lat": 63.861632,
    "lon": -21.142065,
    "leaflet_coords": [
      63.861632,
      -21.142065
    ]
  },
  {
    "ID_lieu": 202,
    "Nom_lieu": "Eyrasund",
    "Coordonnees": "55.615605, 12.863656\n",
    "Type": "other",
    "Notes": "Í Babylon við Eyrarsund / ævi vér dvöldum langa.\n\nChannel / water strait.",
    "lat": 55.615605,
    "lon": 12.863656,
    "leaflet_coords": [
      55.615605,
      12.863656
    ]
  },
  {
    "ID_lieu": 203,
    "Nom_lieu": "Fljótsdalur 1",
    "Coordonnees": "64.997701, -15.031512",
    "Type": "valley",
    "Notes":"NaN",
    "lat": 64.997701,
    "lon": -15.031512,
    "leaflet_coords": [
      64.997701,
      -15.031512
    ]
  },
  {
    "ID_lieu": 204,
    "Nom_lieu": "Gautland",
    "Coordonnees": "56.845705, 14.449973",
    "Type": "region",
    "Notes": "District in southern Sweden.",
    "lat": 56.845705,
    "lon": 14.449973,
    "leaflet_coords": [
      56.845705,
      14.449973
    ]
  },
  {
    "ID_lieu": 205,
    "Nom_lieu": "Víkin í Noregi",
    "Coordonnees": "59.467408, 10.535431",
    "Type": "bay",
    "Notes": "same as Oslofjord and surrounding area.",
    "lat": 59.467408,
    "lon": 10.535431,
    "leaflet_coords": [
      59.467408,
      10.535431
    ]
  },
  {
    "ID_lieu": 206,
    "Nom_lieu": "Raufarfell",
    "Coordonnees": "63.545052, -19.605521",
    "Type": "farm",
    "Notes":"NaN",
    "lat": 63.545052,
    "lon": -19.605521,
    "leaflet_coords": [
      63.545052,
      -19.605521
    ]
  },
  {
    "ID_lieu": 207,
    "Nom_lieu": "Skaftafell",
    "Coordonnees": "64.021659, -16.98926",
    "Type": "farm",
    "Notes":"NaN",
    "lat": 64.021659,
    "lon": -16.98926,
    "leaflet_coords": [
      64.021659,
      -16.98926
    ]
  },
  {
    "ID_lieu": 208,
    "Nom_lieu": "Skógahverfi",
    "Coordonnees": "63.828816, -17.957906",
    "Type": "assembly site",
    "Notes": "same as Síða. Sveitin á milli Skáftár að vestan og Hverfisfljóts að austan.",
    "lat": 63.828816,
    "lon": -17.957906,
    "leaflet_coords": [
      63.828816,
      -17.957906
    ]
  },
  {
    "ID_lieu": 209,
    "Nom_lieu": "Markarfljót",
    "Coordonnees": "63.693796, -19.641146",
    "Type": "river",
    "Notes":"NaN",
    "lat": 63.693796,
    "lon": -19.641146,
    "leaflet_coords": [
      63.693796,
      -19.641146
    ]
  },
  {
    "ID_lieu": 210,
    "Nom_lieu": "Hleiðrargarður",
    "Coordonnees": "65.426929, -18.230947",
    "Type": "farm",
    "Notes": "same as Hleiðargarður",
    "lat": 65.426929,
    "lon": -18.230947,
    "leaflet_coords": [
      65.426929,
      -18.230947
    ]
  },
  {
    "ID_lieu": 211,
    "Nom_lieu": "Dalur",
    "Coordonnees": "63.637819, -19.95087",
    "Type": "farm",
    "Notes": "same as Stóri-Dalur",
    "lat": 63.637819,
    "lon": -19.95087,
    "leaflet_coords": [
      63.637819,
      -19.95087
    ]
  },
  {
    "ID_lieu": 212,
    "Nom_lieu": "Sandhólaferja",
    "Coordonnees": "63.82706, -20.673998",
    "Type": "farm",
    "Notes":"NaN",
    "lat": 63.82706,
    "lon": -20.673998,
    "leaflet_coords": [
      63.82706,
      -20.673998
    ]
  },
  {
    "ID_lieu": 213,
    "Nom_lieu": "Gunnarshaugur",
    "Coordonnees": "63.726517, -19.916201",
    "Type": "burial mound",
    "Notes": "Identification problematic. Here, a large natural hill above and to east of Hlíðarendi. See further discussion in XX, YY, ZZ.",
    "lat": 63.726517,
    "lon": -19.916201,
    "leaflet_coords": [
      63.726517,
      -19.916201
    ]
  },
  {
    "ID_lieu": 214,
    "Nom_lieu": "Hlíðarendi",
    "Coordonnees": "63.726016, -19.947632",
    "Type": "farm",
    "Notes":"NaN",
    "lat": 63.726016,
    "lon": -19.947632,
    "leaflet_coords": [
      63.726016,
      -19.947632
    ]
  },
  {
    "ID_lieu": 215,
    "Nom_lieu": "Þrándargil",
    "Coordonnees": "65.13325, -21.60382",
    "Type": "gully",
    "Notes": "Þrándargil er uppi í Laxárdal, langt upp frá Höskuldsstöðum, og nær það engri átt að nefna það hér, því að þá hefði Höskuldur gefið óðal sitt. Villa þessi, sem handritin eru samsaga um, mun eiga rætur að rekja til vanþekkingar söguritarans á staðháttum. Sigurður Vigfússon (Árb. Fornl. 1882, 92), hyggur, að hér eigi að standa Hrútagil, en það gengur suður úr fjallinu í Haukadalsá, milli Köldukinnar og Skógsmúla. Aftur sýnir Ólafur Lárusson (Vaka III, 335; Byggð og saga 25), að eðlilegra væri, að miðað væri við Þverá, sem ræður landamerkjum milli Köldukinnar, Skógsmúla og Þorbergsstaða að vestan, og Vatns í Haukadal að sunnan, því að telja má víst, að hún hafi takmarkað landnám Dala-Kolls að sunnan, en síðan verið í landamerkjum Hrúts. Annars er svo að sjá sem Höskuldur ákveði við þetta tækifæri land Hrúts, en það hefur þó sjálfsagt verið fyrr, þegar sættir urðu milli þeirra bræðra um fé Þorgerðar, móður þeirra, sem Hrútur heimti. Frá því segir Landn. (156. kap.) ... Þessu lík virðist heimild Njálu hafa verið. Táknar Kambsnes í þessum ritum sjálft nesið, en ekki jörðina Kambsnes, þar sem bær var reistur upp úr hinum gömlu húsatóftum Hrúts, eftir að hann var setztur að á Hrútsstöðum, svo sem Laxd. segir frá (19., 20., og 25. kap.) (ÍF XII, 8-9). ",
    "lat": 65.13325,
    "lon": -21.60382,
    "leaflet_coords": [
      65.13325,
      -21.60382
    ]
  },
  {
    "ID_lieu": 216,
    "Nom_lieu": "Laugarvatn",
    "Coordonnees": "64.213442, -20.729625",
    "Type": "farm",
    "Notes":"NaN",
    "lat": 64.213442,
    "lon": -20.729625,
    "leaflet_coords": [
      64.213442,
      -20.729625
    ]
  },
  {
    "ID_lieu": 217,
    "Nom_lieu": "Rangárvellir",
    "Coordonnees": "63.83675, -20.25455",
    "Type": "region",
    "Notes": "Rangárvellir eru nú kallaðir milli Rangár ytri og eystri, en hér mun nafnið ná yfir stærra svæði, ef til vill ekki greinilega takmarkað. Í Landn. (21.-22. kap.) er talað um Rangárvöllu hina ytri, sýnilega milli Þjórsár og Rangár ytri, og Rangárvöllu eystri, austan Rangár (ytri). Völlur mun vera Völlur í Hvolhreppi, upp með Rangá að austan. Egils saga segir, að þar hafi búið Helgi Stórólfsson (og þá á undan Merði). Geta má þess, að Árna Magnússyni datt í hug, að Mörður hefði búið á Stóru-Völlum á Landi (AM 213 8vo), en það er ólíklegt, því að það bæjarnafn hefur ávaltt verið Vellir og ekki Völlr (ÍF XII, 5).",
    "lat": 63.83675,
    "lon": -20.25455,
    "leaflet_coords": [
      63.83675,
      -20.25455
    ]
  },
  {
    "ID_lieu": 218,
    "Nom_lieu": "Skaftártunga",
    "Coordonnees": "63.691691, -18.556864",
    "Type": "other",
    "Notes":"NaN",
    "lat": 63.691691,
    "lon": -18.556864,
    "leaflet_coords": [
      63.691691,
      -18.556864
    ]
  },
  {
    "ID_lieu": 219,
    "Nom_lieu": "Konungahella",
    "Coordonnees": "57.869485, 11.882742",
    "Type": "trading site",
    "Notes": "Konungahella était une ville marchande bien connue, située sur la branche nord du fleuve Göta (Nordreälv), non loin de l'endroit où se trouve aujourd'hui Göteborg. Voir Curt Weibull : Göta älvs mynning (Göteborgs Högskolas Årskrift, 1950). Il estime que cette ville n'est pas mentionnée dans les sources contemporaines avant le XIIe siècle et qu'elle s'est développée grâce au commerce avec l'Europe de l'Ouest à une période spécifique (XIe et XIIe siècles). Il remet cependant en question les récits des sagas islandaises mentionnant cette ville à une époque antérieure. En raison de la concurrence avec Ljóðhús, une ville située à l'intérieur des frontières du royaume de Suède, et des dommages causés par les guerres, Konungahella déclina. Finalement, elle fut déplacée d'environ 2,5 km en amont du fleuve et s'appelle aujourd'hui Kungälv, un petit bourg (ÍF XII, 11-12).",
    "lat": 57.869485,
    "lon": 11.882742,
    "leaflet_coords": [
      57.869485,
      11.882742
    ]
  },
  {
    "ID_lieu": 220,
    "Nom_lieu": "Borgarfjörður",
    "Coordonnees": "64.441961, -22.083246",
    "Type": "fjord",
    "Notes":"NaN",
    "lat": 64.441961,
    "lon": -22.083246,
    "leaflet_coords": [
      64.441961,
      -22.083246
    ]
  },
  {
    "ID_lieu": 221,
    "Nom_lieu": "Ólafsvík",
    "Coordonnees": "64.892941, -23.702197",
    "Type": "bay",
    "Notes":"NaN",
    "lat": 64.892941,
    "lon": -23.702197,
    "leaflet_coords": [
      64.892941,
      -23.702197
    ]
  },
  {
    "ID_lieu": 222,
    "Nom_lieu": "Grónes",
    "Coordonnees": "65.528247, -22.36947",
    "Type": "farm",
    "Notes":"NaN",
    "lat": 65.528247,
    "lon": -22.36947,
    "leaflet_coords": [
      65.528247,
      -22.36947
    ]
  },
  {
    "ID_lieu": 223,
    "Nom_lieu": "Úlfarsá",
    "Coordonnees": "64.131028, -21.718732",
    "Type": "river",
    "Notes":"NaN",
    "lat": 64.131028,
    "lon": -21.718732,
    "leaflet_coords": [
      64.131028,
      -21.718732
    ]
  },
  {
    "ID_lieu": 224,
    "Nom_lieu": "Steinsstaðir",
    "Coordonnees": "65.470062, -19.333434",
    "Type": "farm",
    "Notes": "Grettis saga: IPE",
    "lat": 65.470062,
    "lon": -19.333434,
    "leaflet_coords": [
      65.470062,
      -19.333434
    ]
  },
  {
    "ID_lieu": 225,
    "Nom_lieu": "Byrgisvík",
    "Coordonnees": "66.084386, -21.580484",
    "Type": "harbour",
    "Notes":"NaN",
    "lat": 66.084386,
    "lon": -21.580484,
    "leaflet_coords": [
      66.084386,
      -21.580484
    ]
  },
  {
    "ID_lieu": 226,
    "Nom_lieu": "Fagrabrekka",
    "Coordonnees": "65.13787, -21.097178",
    "Type": "farm",
    "Notes":"NaN",
    "lat": 65.13787,
    "lon": -21.097178,
    "leaflet_coords": [
      65.13787,
      -21.097178
    ]
  },
  {
    "ID_lieu": 227,
    "Nom_lieu": "Foss",
    "Coordonnees": "63.820554, -19.919914",
    "Type": "farm",
    "Notes":"NaN",
    "lat": 63.820554,
    "lon": -19.919914,
    "leaflet_coords": [
      63.820554,
      -19.919914
    ]
  },
  {
    "ID_lieu": 228,
    "Nom_lieu": "Kjölvararstaðir",
    "Coordonnees": "64.654619, -21.330753",
    "Type": "farm",
    "Notes":"NaN",
    "lat": 64.654619,
    "lon": -21.330753,
    "leaflet_coords": [
      64.654619,
      -21.330753
    ]
  },
  {
    "ID_lieu": 229,
    "Nom_lieu": "Egilsstaðir",
    "Coordonnees": "65.673489, -14.881964",
    "Type": "farm",
    "Notes":"NaN",
    "lat": 65.673489,
    "lon": -14.881964,
    "leaflet_coords": [
      65.673489,
      -14.881964
    ]
  },
  {
    "ID_lieu": 230,
    "Nom_lieu": "Esjuberg",
    "Coordonnees": "64.218422, -21.774091",
    "Type": "farm",
    "Notes":"NaN",
    "lat": 64.218422,
    "lon": -21.774091,
    "leaflet_coords": [
      64.218422,
      -21.774091
    ]
  },
  {
    "ID_lieu": 231,
    "Nom_lieu": "Vestdalsá",
    "Coordonnees": "65.284101, -14.021868",
    "Type": "river",
    "Notes":"NaN",
    "lat": 65.284101,
    "lon": -14.021868,
    "leaflet_coords": [
      65.284101,
      -14.021868
    ]
  },
  {
    "ID_lieu": 232,
    "Nom_lieu": "Hjarðarnes",
    "Coordonnees": "65.576428, -23.053663",
    "Type": "region",
    "Notes":"NaN",
    "lat": 65.576428,
    "lon": -23.053663,
    "leaflet_coords": [
      65.576428,
      -23.053663
    ]
  },
  {
    "ID_lieu": 233,
    "Nom_lieu": "Eldgrímsstaðir",
    "Coordonnees": "64.736233, -21.466165",
    "Type": "farm",
    "Notes":"NaN",
    "lat": 64.736233,
    "lon": -21.466165,
    "leaflet_coords": [
      64.736233,
      -21.466165
    ]
  },
  {
    "ID_lieu": 234,
    "Nom_lieu": "Hafursá",
    "Coordonnees": "63.48202, -19.167794",
    "Type": "river",
    "Notes":"NaN",
    "lat": 63.48202,
    "lon": -19.167794,
    "leaflet_coords": [
      63.48202,
      -19.167794
    ]
  },
  {
    "ID_lieu": 235,
    "Nom_lieu": "Hálogaland",
    "Coordonnees": "70.1702006854921, 21.62109375",
    "Type": "region",
    "Notes":"NaN",
    "lat": 70.1702006854921,
    "lon": 21.62109375,
    "leaflet_coords": [
      70.1702006854921,
      21.62109375
    ]
  },
  {
    "ID_lieu": 236,
    "Nom_lieu": "Króksfjarðarmúli",
    "Coordonnees": "65.461758, -21.88376",
    "Type": "mountain",
    "Notes":"NaN",
    "lat": 65.461758,
    "lon": -21.88376,
    "leaflet_coords": [
      65.461758,
      -21.88376
    ]
  },
  {
    "ID_lieu": 237,
    "Nom_lieu": "Fáskrúðsfjörður",
    "Coordonnees": "64.903579, -13.835988",
    "Type": "fjord",
    "Notes":"NaN",
    "lat": 64.903579,
    "lon": -13.835988,
    "leaflet_coords": [
      64.903579,
      -13.835988
    ]
  },
  {
    "ID_lieu": 238,
    "Nom_lieu": "Tjaldanes í Arnarfjörður",
    "Coordonnees": "65.76081, -23.511467",
    "Type": "farm",
    "Notes":"NaN",
    "lat": 65.76081,
    "lon": -23.511467,
    "leaflet_coords": [
      65.76081,
      -23.511467
    ]
  },
  {
    "ID_lieu": 239,
    "Nom_lieu": "Áshildarmýri",
    "Coordonnees": "63.969474, -20.627287",
    "Type": "heath",
    "Notes":"NaN",
    "lat": 63.969474,
    "lon": -20.627287,
    "leaflet_coords": [
      63.969474,
      -20.627287
    ]
  },
  {
    "ID_lieu": 240,
    "Nom_lieu": "Súluholt",
    "Coordonnees": "63.888603, -20.866553",
    "Type": "farm",
    "Notes":"NaN",
    "lat": 63.888603,
    "lon": -20.866553,
    "leaflet_coords": [
      63.888603,
      -20.866553
    ]
  },
  {
    "ID_lieu": 241,
    "Nom_lieu": "Skrúður",
    "Coordonnees": "64.900653, -13.624711",
    "Type": "island",
    "Notes":"NaN",
    "lat": 64.900653,
    "lon": -13.624711,
    "leaflet_coords": [
      64.900653,
      -13.624711
    ]
  },
  {
    "ID_lieu": 242,
    "Nom_lieu": "Hallgeirsey",
    "Coordonnees": "63.612819, -20.33284",
    "Type": "farm",
    "Notes":"NaN",
    "lat": 63.612819,
    "lon": -20.33284,
    "leaflet_coords": [
      63.612819,
      -20.33284
    ]
  },
  {
    "ID_lieu": 243,
    "Nom_lieu": "Ingjaldsgnúpur (Ingjaldshnúkur)",
    "Coordonnees": "64.199352, -20.199683",
    "Type": "hill",
    "Notes":"NaN",
    "lat": 64.199352,
    "lon": -20.199683,
    "leaflet_coords": [
      64.199352,
      -20.199683
    ]
  },
  {
    "ID_lieu": 244,
    "Nom_lieu": "Bjarnastaðir",
    "Coordonnees": "64.706597, -21.043926",
    "Type": "farm",
    "Notes":"NaN",
    "lat": 64.706597,
    "lon": -21.043926,
    "leaflet_coords": [
      64.706597,
      -21.043926
    ]
  },
  {
    "ID_lieu": 245,
    "Nom_lieu": "Beigansstaðir",
    "Coordonnees": "64.365048, -21.943128",
    "Type": "farm",
    "Notes":"NaN",
    "lat": 64.365048,
    "lon": -21.943128,
    "leaflet_coords": [
      64.365048,
      -21.943128
    ]
  },
  {
    "ID_lieu": 246,
    "Nom_lieu": "Jörundarholt",
    "Coordonnees": "64.318748, -22.03851",
    "Type": "farm",
    "Notes":"NaN",
    "lat": 64.318748,
    "lon": -22.03851,
    "leaflet_coords": [
      64.318748,
      -22.03851
    ]
  },
  {
    "ID_lieu": 247,
    "Nom_lieu": "Öndvertnes",
    "Coordonnees": "64.879479, -24.043345",
    "Type": "peninsula",
    "Notes":"NaN",
    "lat": 64.879479,
    "lon": -24.043345,
    "leaflet_coords": [
      64.879479,
      -24.043345
    ]
  },
  {
    "ID_lieu": 248,
    "Nom_lieu": "Stafá í Skagafirði",
    "Coordonnees": "66.063583, -19.28275",
    "Type": "river",
    "Notes":"NaN",
    "lat": 66.063583,
    "lon": -19.28275,
    "leaflet_coords": [
      66.063583,
      -19.28275
    ]
  },
  {
    "ID_lieu": 249,
    "Nom_lieu": "Bjargarós",
    "Coordonnees": "65.593875, -20.575392",
    "Type": "estuary",
    "Notes":"NaN",
    "lat": 65.593875,
    "lon": -20.575392,
    "leaflet_coords": [
      65.593875,
      -20.575392
    ]
  },
  {
    "ID_lieu": 250,
    "Nom_lieu": "Fljót",
    "Coordonnees": "64.837766, -20.623607",
    "Type": "river",
    "Notes": "same as Norðlingafljót",
    "lat": 64.837766,
    "lon": -20.623607,
    "leaflet_coords": [
      64.837766,
      -20.623607
    ]
  },
  {
    "ID_lieu": 251,
    "Nom_lieu": "Laxá í Skógarströnd",
    "Coordonnees": "65.019028, -22.122251",
    "Type": "river",
    "Notes":"NaN",
    "lat": 65.019028,
    "lon": -22.122251,
    "leaflet_coords": [
      65.019028,
      -22.122251
    ]
  },
  {
    "ID_lieu": 252,
    "Nom_lieu": "Hegranes",
    "Coordonnees": "65.72271, -19.49866",
    "Type": "peninsula",
    "Notes":"NaN",
    "lat": 65.72271,
    "lon": -19.49866,
    "leaflet_coords": [
      65.72271,
      -19.49866
    ]
  },
  {
    "ID_lieu": 253,
    "Nom_lieu": "Arnaldsstaðir (Arnhólsstaðir í Skriðdal)",
    "Coordonnees": "65.040753, -14.594539",
    "Type": "farm",
    "Notes":"NaN",
    "lat": 65.040753,
    "lon": -14.594539,
    "leaflet_coords": [
      65.040753,
      -14.594539
    ]
  },
  {
    "ID_lieu": 254,
    "Nom_lieu": "Flatatunga",
    "Coordonnees": "65.416672, -19.155948",
    "Type": "farm",
    "Notes":"NaN",
    "lat": 65.416672,
    "lon": -19.155948,
    "leaflet_coords": [
      65.416672,
      -19.155948
    ]
  },
  {
    "ID_lieu": 255,
    "Nom_lieu": "Giljar",
    "Coordonnees": "64.671681, -21.071434",
    "Type": "farm",
    "Notes":"NaN",
    "lat": 64.671681,
    "lon": -21.071434,
    "leaflet_coords": [
      64.671681,
      -21.071434
    ]
  },
  {
    "ID_lieu": 256,
    "Nom_lieu": "Steinólfshjalli",
    "Coordonnees": "65.344487, -22.087628",
    "Type": "farm",
    "Notes":"NaN",
    "lat": 65.344487,
    "lon": -22.087628,
    "leaflet_coords": [
      65.344487,
      -22.087628
    ]
  },
  {
    "ID_lieu": 257,
    "Nom_lieu": "Blanda",
    "Coordonnees": "65.583952, -20.065936",
    "Type": "river",
    "Notes":"NaN",
    "lat": 65.583952,
    "lon": -20.065936,
    "leaflet_coords": [
      65.583952,
      -20.065936
    ]
  },
  {
    "ID_lieu": 258,
    "Nom_lieu": "Borðeyri",
    "Coordonnees": "65.208914, -21.096312",
    "Type": "peninsula",
    "Notes":"NaN",
    "lat": 65.208914,
    "lon": -21.096312,
    "leaflet_coords": [
      65.208914,
      -21.096312
    ]
  },
  {
    "ID_lieu": 259,
    "Nom_lieu": "Gunnlaugsstaðir",
    "Coordonnees": "64.718898, -21.432101",
    "Type": "farm",
    "Notes":"NaN",
    "lat": 64.718898,
    "lon": -21.432101,
    "leaflet_coords": [
      64.718898,
      -21.432101
    ]
  },
  {
    "ID_lieu": 260,
    "Nom_lieu": "Barðsvík",
    "Coordonnees": "66.338762, -22.253081",
    "Type": "bay",
    "Notes":"NaN",
    "lat": 66.338762,
    "lon": -22.253081,
    "leaflet_coords": [
      66.338762,
      -22.253081
    ]
  },
  {
    "ID_lieu": 261,
    "Nom_lieu": "Langanes",
    "Coordonnees": "66.3666999364306, -14.5747375488281",
    "Type": "peninsula",
    "Notes":"NaN",
    "lat": 66.3666999364306,
    "lon": -14.5747375488281,
    "leaflet_coords": [
      66.3666999364306,
      -14.5747375488281
    ]
  },
  {
    "ID_lieu": 262,
    "Nom_lieu": "Svínadalur",
    "Coordonnees": "65.5311709741772, -20.1200866699219",
    "Type": "valley",
    "Notes":"NaN",
    "lat": 65.5311709741772,
    "lon": -20.1200866699219,
    "leaflet_coords": [
      65.5311709741772,
      -20.1200866699219
    ]
  },
  {
    "ID_lieu": 263,
    "Nom_lieu": "Hjaltland",
    "Coordonnees": "60.565962, -1.380122",
    "Type": "region",
    "Notes":"NaN",
    "lat": 60.565962,
    "lon": -1.380122,
    "leaflet_coords": [
      60.565962,
      -1.380122
    ]
  },
  {
    "ID_lieu": 264,
    "Nom_lieu": "Jörundarfjall",
    "Coordonnees": "65.4659603088513, -20.1784515380859",
    "Type": "mountain",
    "Notes":"NaN",
    "lat": 65.4659603088513,
    "lon": -20.1784515380859,
    "leaflet_coords": [
      65.4659603088513,
      -20.1784515380859
    ]
  },
  {
    "ID_lieu": 265,
    "Nom_lieu": "Stafngrímsstaðir",
    "Coordonnees": "64.696798, -21.103089",
    "Type": "farm",
    "Notes": "same as Sigmundarstaðir",
    "lat": 64.696798,
    "lon": -21.103089,
    "leaflet_coords": [
      64.696798,
      -21.103089
    ]
  },
  {
    "ID_lieu": 266,
    "Nom_lieu": "Skálmarnes við Skálmarfjörð",
    "Coordonnees": "65.506281, -22.719026",
    "Type": "peninsula",
    "Notes":"NaN",
    "lat": 65.506281,
    "lon": -22.719026,
    "leaflet_coords": [
      65.506281,
      -22.719026
    ]
  },
  {
    "ID_lieu": 267,
    "Nom_lieu": "Mjöla (Meløy í Noregi)",
    "Coordonnees": "66.781214, 13.817725",
    "Type": "region",
    "Notes":"NaN",
    "lat": 66.781214,
    "lon": 13.817725,
    "leaflet_coords": [
      66.781214,
      13.817725
    ]
  },
  {
    "ID_lieu": 268,
    "Nom_lieu": "Fossvellir",
    "Coordonnees": "65.453566, -14.60213",
    "Type": "field",
    "Notes":"NaN",
    "lat": 65.453566,
    "lon": -14.60213,
    "leaflet_coords": [
      65.453566,
      -14.60213
    ]
  },
  {
    "ID_lieu": 269,
    "Nom_lieu": "Böðvarshólar",
    "Coordonnees": "65.421336, -20.726266",
    "Type": "farm",
    "Notes": "Grettis saga: IPE",
    "lat": 65.421336,
    "lon": -20.726266,
    "leaflet_coords": [
      65.421336,
      -20.726266
    ]
  },
  {
    "ID_lieu": 270,
    "Nom_lieu": "Langanes í Arnafjörður",
    "Coordonnees": "65.719408, -23.532618",
    "Type": "peninsula",
    "Notes":"NaN",
    "lat": 65.719408,
    "lon": -23.532618,
    "leaflet_coords": [
      65.719408,
      -23.532618
    ]
  },
  {
    "ID_lieu": 271,
    "Nom_lieu": "Vikrarskeið",
    "Coordonnees": "63.874502, -21.360825",
    "Type": "region",
    "Notes": "same as Hafnarskeið",
    "lat": 63.874502,
    "lon": -21.360825,
    "leaflet_coords": [
      63.874502,
      -21.360825
    ]
  },
  {
    "ID_lieu": 272,
    "Nom_lieu": "Vaðill",
    "Coordonnees": "65.511524, -23.369598",
    "Type": "farm",
    "Notes":"NaN",
    "lat": 65.511524,
    "lon": -23.369598,
    "leaflet_coords": [
      65.511524,
      -23.369598
    ]
  },
  {
    "ID_lieu": 273,
    "Nom_lieu": "Botnsá",
    "Coordonnees": "64.384254, -21.327364",
    "Type": "river",
    "Notes":"NaN",
    "lat": 64.384254,
    "lon": -21.327364,
    "leaflet_coords": [
      64.384254,
      -21.327364
    ]
  },
  {
    "ID_lieu": 274,
    "Nom_lieu": "Færeyjar",
    "Coordonnees": "62.007451, -6.778993",
    "Type": "island",
    "Notes":"NaN",
    "lat": 62.007451,
    "lon": -6.778993,
    "leaflet_coords": [
      62.007451,
      -6.778993
    ]
  },
  {
    "ID_lieu": 275,
    "Nom_lieu": "Stífla",
    "Coordonnees": "65.980999, -18.97773",
    "Type": "region",
    "Notes":"NaN",
    "lat": 65.980999,
    "lon": -18.97773,
    "leaflet_coords": [
      65.980999,
      -18.97773
    ]
  },
  {
    "ID_lieu": 276,
    "Nom_lieu": "Gnúpufell",
    "Coordonnees": "65.435811, -18.200705",
    "Type": "farm",
    "Notes":"NaN",
    "lat": 65.435811,
    "lon": -18.200705,
    "leaflet_coords": [
      65.435811,
      -18.200705
    ]
  },
  {
    "ID_lieu": 277,
    "Nom_lieu": "Þúfubjörg",
    "Coordonnees": "64.735185, -23.776227",
    "Type": "cliff",
    "Notes":"NaN",
    "lat": 64.735185,
    "lon": -23.776227,
    "leaflet_coords": [
      64.735185,
      -23.776227
    ]
  },
  {
    "ID_lieu": 278,
    "Nom_lieu": "Hjalli",
    "Coordonnees": "63.941831, -21.297997",
    "Type": "farm",
    "Notes":"NaN",
    "lat": 63.941831,
    "lon": -21.297997,
    "leaflet_coords": [
      63.941831,
      -21.297997
    ]
  },
  {
    "ID_lieu": 279,
    "Nom_lieu": "Kvígandafjörður (Kvígindisfjörður)",
    "Coordonnees": "65.587573, -22.60165",
    "Type": "fjord",
    "Notes":"NaN",
    "lat": 65.587573,
    "lon": -22.60165,
    "leaflet_coords": [
      65.587573,
      -22.60165
    ]
  },
  {
    "ID_lieu": 280,
    "Nom_lieu": "Fellsmúli",
    "Coordonnees": "65.8205011011819, -17.3666381835938",
    "Type": "farm",
    "Notes": "Múli heitir bærinn nú, og var það nafn tíðast á 13. öld",
    "lat": 65.8205011011819,
    "lon": -17.3666381835938,
    "leaflet_coords": [
      65.8205011011819,
      -17.3666381835938
    ]
  },
  {
    "ID_lieu": 281,
    "Nom_lieu": "Njarðey (Nærøy)",
    "Coordonnees": "64.895659, 11.230897",
    "Type": "region",
    "Notes":"NaN",
    "lat": 64.895659,
    "lon": 11.230897,
    "leaflet_coords": [
      64.895659,
      11.230897
    ]
  },
  {
    "ID_lieu": 282,
    "Nom_lieu": "Vellir við Lagarfljót",
    "Coordonnees": "65.189969, -14.488287",
    "Type": "region",
    "Notes":"NaN",
    "lat": 65.189969,
    "lon": -14.488287,
    "leaflet_coords": [
      65.189969,
      -14.488287
    ]
  },
  {
    "ID_lieu": 283,
    "Nom_lieu": "Svignaskarð",
    "Coordonnees": "64.666038, -21.699987",
    "Type": "farm",
    "Notes":"NaN",
    "lat": 64.666038,
    "lon": -21.699987,
    "leaflet_coords": [
      64.666038,
      -21.699987
    ]
  },
  {
    "ID_lieu": 284,
    "Nom_lieu": "Hjörleifshöfði",
    "Coordonnees": "63.4304, -18.762323",
    "Type": "cliff",
    "Notes":"NaN",
    "lat": 63.4304,
    "lon": -18.762323,
    "leaflet_coords": [
      63.4304,
      -18.762323
    ]
  },
  {
    "ID_lieu": 285,
    "Nom_lieu": "Klofningar",
    "Coordonnees": "65.21096, -22.442943",
    "Type": "region",
    "Notes":"NaN",
    "lat": 65.21096,
    "lon": -22.442943,
    "leaflet_coords": [
      65.21096,
      -22.442943
    ]
  },
  {
    "ID_lieu": 286,
    "Nom_lieu": "Ingjaldssandur",
    "Coordonnees": "66.043658, -23.694106",
    "Type": "farm",
    "Notes":"NaN",
    "lat": 66.043658,
    "lon": -23.694106,
    "leaflet_coords": [
      66.043658,
      -23.694106
    ]
  },
  {
    "ID_lieu": 287,
    "Nom_lieu": "Hvalvatnsfjörður",
    "Coordonnees": "66.148752, -18.06632",
    "Type": "fjord",
    "Notes":"NaN",
    "lat": 66.148752,
    "lon": -18.06632,
    "leaflet_coords": [
      66.148752,
      -18.06632
    ]
  },
  {
    "ID_lieu": 288,
    "Nom_lieu": "Krumshólar",
    "Coordonnees": "64.597403, -21.808882",
    "Type": "farm",
    "Notes": "same as Krumshóll",
    "lat": 64.597403,
    "lon": -21.808882,
    "leaflet_coords": [
      64.597403,
      -21.808882
    ]
  },
  {
    "ID_lieu": 289,
    "Nom_lieu": "Flókadalsá",
    "Coordonnees": "66.03336, -19.150181",
    "Type": "river",
    "Notes":"NaN",
    "lat": 66.03336,
    "lon": -19.150181,
    "leaflet_coords": [
      66.03336,
      -19.150181
    ]
  },
  {
    "ID_lieu": 290,
    "Nom_lieu": "Sléttahlíð",
    "Coordonnees": "66.037754, -19.385971",
    "Type": "region",
    "Notes":"NaN",
    "lat": 66.037754,
    "lon": -19.385971,
    "leaflet_coords": [
      66.037754,
      -19.385971
    ]
  },
  {
    "ID_lieu": 291,
    "Nom_lieu": "Breiðársandur (Breiðamerkursandur)",
    "Coordonnees": "63.971901, -16.373238",
    "Type": "other",
    "Notes":"NaN",
    "lat": 63.971901,
    "lon": -16.373238,
    "leaflet_coords": [
      63.971901,
      -16.373238
    ]
  },
  {
    "ID_lieu": 292,
    "Nom_lieu": "Stafanesvogur",
    "Coordonnees": "61.566592, 5.166848",
    "Type": "bay",
    "Notes": "NB check location.",
    "lat": 61.566592,
    "lon": 5.166848,
    "leaflet_coords": [
      61.566592,
      5.166848
    ]
  },
  {
    "ID_lieu": 293,
    "Nom_lieu": "Hnitbjörg",
    "Coordonnees": "64.756866, -21.121348",
    "Type": "stone",
    "Notes":"NaN",
    "lat": 64.756866,
    "lon": -21.121348,
    "leaflet_coords": [
      64.756866,
      -21.121348
    ]
  },
  {
    "ID_lieu": 294,
    "Nom_lieu": "Smiðsstaðir",
    "Coordonnees": "65.3489433862501, -20.1961326599121",
    "Type": "farm",
    "Notes":"NaN",
    "lat": 65.3489433862501,
    "lon": -20.1961326599121,
    "leaflet_coords": [
      65.3489433862501,
      -20.1961326599121
    ]
  },
  {
    "ID_lieu": 295,
    "Nom_lieu": "Þjórsárós",
    "Coordonnees": "63.773916, -20.812494",
    "Type": "estuary",
    "Notes":"NaN",
    "lat": 63.773916,
    "lon": -20.812494,
    "leaflet_coords": [
      63.773916,
      -20.812494
    ]
  },
  {
    "ID_lieu": 296,
    "Nom_lieu": "Reykjarhóll",
    "Coordonnees": "66.020984, -19.003667",
    "Type": "hill",
    "Notes":"NaN",
    "lat": 66.020984,
    "lon": -19.003667,
    "leaflet_coords": [
      66.020984,
      -19.003667
    ]
  },
  {
    "ID_lieu": 297,
    "Nom_lieu": "Hítardalur",
    "Coordonnees": "64.80126, -22.04785",
    "Type": "farm",
    "Notes":"NaN",
    "lat": 64.80126,
    "lon": -22.04785,
    "leaflet_coords": [
      64.80126,
      -22.04785
    ]
  },
  {
    "ID_lieu": 298,
    "Nom_lieu": "Salteyrarós",
    "Coordonnees": "64.954094, -23.317701",
    "Type": "estuary",
    "Notes":"NaN",
    "lat": 64.954094,
    "lon": -23.317701,
    "leaflet_coords": [
      64.954094,
      -23.317701
    ]
  },
  {
    "ID_lieu": 299,
    "Nom_lieu": "Krýsuvík",
    "Coordonnees": "63.898637, -22.051938",
    "Type": "other",
    "Notes":"NaN",
    "lat": 63.898637,
    "lon": -22.051938,
    "leaflet_coords": [
      63.898637,
      -22.051938
    ]
  },
  {
    "ID_lieu": 300,
    "Nom_lieu": "Breiðabólstaður í Fljótshlíð",
    "Coordonnees": "63.739473, -20.129976",
    "Type": "farm",
    "Notes":"NaN",
    "lat": 63.739473,
    "lon": -20.129976,
    "leaflet_coords": [
      63.739473,
      -20.129976
    ]
  },
  {
    "ID_lieu": 301,
    "Nom_lieu": "Mýrar",
    "Coordonnees": "64.645337, -22.27762",
    "Type": "region",
    "Notes":"NaN",
    "lat": 64.645337,
    "lon": -22.27762,
    "leaflet_coords": [
      64.645337,
      -22.27762
    ]
  },
  {
    "ID_lieu": 302,
    "Nom_lieu": "Úlfarsfell",
    "Coordonnees": "64.981326, -22.617563",
    "Type": "mountain",
    "Notes":"NaN",
    "lat": 64.981326,
    "lon": -22.617563,
    "leaflet_coords": [
      64.981326,
      -22.617563
    ]
  },
  {
    "ID_lieu": 303,
    "Nom_lieu": "Ægissiða",
    "Coordonnees": "65.570238, -20.657623",
    "Type": "farm",
    "Notes":"NaN",
    "lat": 65.570238,
    "lon": -20.657623,
    "leaflet_coords": [
      65.570238,
      -20.657623
    ]
  },
  {
    "ID_lieu": 304,
    "Nom_lieu": "Drangaland",
    "Coordonnees": "66.147046, -21.788817",
    "Type": "other",
    "Notes":"NaN",
    "lat": 66.147046,
    "lon": -21.788817,
    "leaflet_coords": [
      66.147046,
      -21.788817
    ]
  },
  {
    "ID_lieu": 305,
    "Nom_lieu": "Ketilsstaðir",
    "Coordonnees": "65.014191, -21.862053",
    "Type": "farm",
    "Notes":"NaN",
    "lat": 65.014191,
    "lon": -21.862053,
    "leaflet_coords": [
      65.014191,
      -21.862053
    ]
  },
  {
    "ID_lieu": 306,
    "Nom_lieu": "Ísleifsstaðir",
    "Coordonnees": "64.743143, -21.329861",
    "Type": "farm",
    "Notes":"NaN",
    "lat": 64.743143,
    "lon": -21.329861,
    "leaflet_coords": [
      64.743143,
      -21.329861
    ]
  },
  {
    "ID_lieu": 307,
    "Nom_lieu": "Skörð",
    "Coordonnees": "65.958407, -17.321108",
    "Type": "farm",
    "Notes":"NaN",
    "lat": 65.958407,
    "lon": -17.321108,
    "leaflet_coords": [
      65.958407,
      -17.321108
    ]
  },
  {
    "ID_lieu": 308,
    "Nom_lieu": "Strönd",
    "Coordonnees": "63.808611, -20.309894",
    "Type": "farm",
    "Notes":"NaN",
    "lat": 63.808611,
    "lon": -20.309894,
    "leaflet_coords": [
      63.808611,
      -20.309894
    ]
  },
  {
    "ID_lieu": 309,
    "Nom_lieu": "Eiríksstaðir í Öxney",
    "Coordonnees": "65.089463, -22.506795",
    "Type": "farm",
    "Notes": "Einnig Eiríksbær",
    "lat": 65.089463,
    "lon": -22.506795,
    "leaflet_coords": [
      65.089463,
      -22.506795
    ]
  },
  {
    "ID_lieu": 310,
    "Nom_lieu": "Akrar",
    "Coordonnees": "64.639998, -22.376692",
    "Type": "farm",
    "Notes":"NaN",
    "lat": 64.639998,
    "lon": -22.376692,
    "leaflet_coords": [
      64.639998,
      -22.376692
    ]
  },
  {
    "ID_lieu": 311,
    "Nom_lieu": "Stígandahróf",
    "Coordonnees": "65.5874228403966, -20.3851318359375",
    "Type": "region",
    "Notes":"NaN",
    "lat": 65.5874228403966,
    "lon": -20.3851318359375,
    "leaflet_coords": [
      65.5874228403966,
      -20.3851318359375
    ]
  },
  {
    "ID_lieu": 312,
    "Nom_lieu": "Ormsdalur",
    "Coordonnees": "65.45837, -20.767738",
    "Type": "valley",
    "Notes":"NaN",
    "lat": 65.45837,
    "lon": -20.767738,
    "leaflet_coords": [
      65.45837,
      -20.767738
    ]
  },
  {
    "ID_lieu": 313,
    "Nom_lieu": "Kollslækur",
    "Coordonnees": "64.678789, -21.102258",
    "Type": "farm",
    "Notes":"NaN",
    "lat": 64.678789,
    "lon": -21.102258,
    "leaflet_coords": [
      64.678789,
      -21.102258
    ]
  },
  {
    "ID_lieu": 314,
    "Nom_lieu": "Þrándheimur",
    "Coordonnees": "63.4062799937642, 10.37109375",
    "Type": "region",
    "Notes":"NaN",
    "lat": 63.4062799937642,
    "lon": 10.37109375,
    "leaflet_coords": [
      63.4062799937642,
      10.37109375
    ]
  },
  {
    "ID_lieu": 315,
    "Nom_lieu": "Hof in Hjaltadalur",
    "Coordonnees": "65.711885, -19.093259",
    "Type": "farm",
    "Notes":"NaN",
    "lat": 65.711885,
    "lon": -19.093259,
    "leaflet_coords": [
      65.711885,
      -19.093259
    ]
  },
  {
    "ID_lieu": 316,
    "Nom_lieu": "Karlsbrekka",
    "Coordonnees": "64.758164, -21.407771",
    "Type": "farm",
    "Notes": "same as Hrómundarstaðir",
    "lat": 64.758164,
    "lon": -21.407771,
    "leaflet_coords": [
      64.758164,
      -21.407771
    ]
  },
  {
    "ID_lieu": 317,
    "Nom_lieu": "Ófæra",
    "Coordonnees": "65.935416, -21.365685",
    "Type": "farm",
    "Notes": "same as Veiðileysukleif. Er nálægt miðri suðurströnd fjarðarins (Veiðileysu), og er þar illt yfirferðar (ÍV VII, 22).",
    "lat": 65.935416,
    "lon": -21.365685,
    "leaflet_coords": [
      65.935416,
      -21.365685
    ]
  },
  {
    "ID_lieu": 318,
    "Nom_lieu": "Borgarhraun",
    "Coordonnees": "64.805467, -22.364091",
    "Type": "other",
    "Notes":"NaN",
    "lat": 64.805467,
    "lon": -22.364091,
    "leaflet_coords": [
      64.805467,
      -22.364091
    ]
  },
  {
    "ID_lieu": 319,
    "Nom_lieu": "Reykjadalur",
    "Coordonnees": "65.767622, -17.408612",
    "Type": "valley",
    "Notes":"NaN",
    "lat": 65.767622,
    "lon": -17.408612,
    "leaflet_coords": [
      65.767622,
      -17.408612
    ]
  },
  {
    "ID_lieu": 320,
    "Nom_lieu": "Naumudalur",
    "Coordonnees": "64.3667, 12.9167",
    "Type": "valley",
    "Notes": "Naumudalur heitir nú Namdalen og er við ána Namsen í Noregi.",
    "lat": 64.3667,
    "lon": 12.9167,
    "leaflet_coords": [
      64.3667,
      12.9167
    ]
  },
  {
    "ID_lieu": 321,
    "Nom_lieu": "Sunnmæri",
    "Coordonnees": "62.033227, 6.683709",
    "Type": "region",
    "Notes": "same as Sunnmøre",
    "lat": 62.033227,
    "lon": 6.683709,
    "leaflet_coords": [
      62.033227,
      6.683709
    ]
  },
  {
    "ID_lieu": 322,
    "Nom_lieu": "Skálafell",
    "Coordonnees": "64.247789, -15.686775",
    "Type": "farm",
    "Notes":"NaN",
    "lat": 64.247789,
    "lon": -15.686775,
    "leaflet_coords": [
      64.247789,
      -15.686775
    ]
  },
  {
    "ID_lieu": 323,
    "Nom_lieu": "Þórishólar",
    "Coordonnees": "64.370478, -21.589169",
    "Type": "hill",
    "Notes":"NaN",
    "lat": 64.370478,
    "lon": -21.589169,
    "leaflet_coords": [
      64.370478,
      -21.589169
    ]
  },
  {
    "ID_lieu": 324,
    "Nom_lieu": "Hengifossá",
    "Coordonnees": "65.077758, -14.862489",
    "Type": "river",
    "Notes":"NaN",
    "lat": 65.077758,
    "lon": -14.862489,
    "leaflet_coords": [
      65.077758,
      -14.862489
    ]
  },
  {
    "ID_lieu": 325,
    "Nom_lieu": "Torfastaðir",
    "Coordonnees": "65.709318, -14.805311",
    "Type": "farm",
    "Notes":"NaN",
    "lat": 65.709318,
    "lon": -14.805311,
    "leaflet_coords": [
      65.709318,
      -14.805311
    ]
  },
  {
    "ID_lieu": 326,
    "Nom_lieu": "Sótafell",
    "Coordonnees": "65.446071, -20.766694",
    "Type": "mountain",
    "Notes":"NaN",
    "lat": 65.446071,
    "lon": -20.766694,
    "leaflet_coords": [
      65.446071,
      -20.766694
    ]
  },
  {
    "ID_lieu": 327,
    "Nom_lieu": "Trostansfjörður",
    "Coordonnees": "65.631617, -23.407119",
    "Type": "fjord",
    "Notes":"NaN",
    "lat": 65.631617,
    "lon": -23.407119,
    "leaflet_coords": [
      65.631617,
      -23.407119
    ]
  },
  {
    "ID_lieu": 328,
    "Nom_lieu": "Kvíá",
    "Coordonnees": "63.936568, -16.429431",
    "Type": "river",
    "Notes":"NaN",
    "lat": 63.936568,
    "lon": -16.429431,
    "leaflet_coords": [
      63.936568,
      -16.429431
    ]
  },
  {
    "ID_lieu": 329,
    "Nom_lieu": "Viðfjörður",
    "Coordonnees": "65.101614, -13.617956",
    "Type": "fjord",
    "Notes":"NaN",
    "lat": 65.101614,
    "lon": -13.617956,
    "leaflet_coords": [
      65.101614,
      -13.617956
    ]
  },
  {
    "ID_lieu": 330,
    "Nom_lieu": "Borgardalur",
    "Coordonnees": "64.989497, -22.58968",
    "Type": "valley",
    "Notes":"NaN",
    "lat": 64.989497,
    "lon": -22.58968,
    "leaflet_coords": [
      64.989497,
      -22.58968
    ]
  },
  {
    "ID_lieu": 331,
    "Nom_lieu": "Þórsnes",
    "Coordonnees": "65.028821, -22.754741",
    "Type": "farm",
    "Notes":"NaN",
    "lat": 65.028821,
    "lon": -22.754741,
    "leaflet_coords": [
      65.028821,
      -22.754741
    ]
  },
  {
    "ID_lieu": 332,
    "Nom_lieu": "Fjalir 1",
    "Coordonnees": "61.35547, 5.389831",
    "Type": "other",
    "Notes": "same as Fjaler in Sogn and Fjordane",
    "lat": 61.35547,
    "lon": 5.389831,
    "leaflet_coords": [
      61.35547,
      5.389831
    ]
  },
  {
    "ID_lieu": 333,
    "Nom_lieu": "Stafshóll (Stafnshóll)",
    "Coordonnees": "65.86274, -19.322006",
    "Type": "farm",
    "Notes":"NaN",
    "lat": 65.86274,
    "lon": -19.322006,
    "leaflet_coords": [
      65.86274,
      -19.322006
    ]
  },
  {
    "ID_lieu": 334,
    "Nom_lieu": "Hvítárbakki",
    "Coordonnees": "64.627905, -21.625875",
    "Type": "farm",
    "Notes":"NaN",
    "lat": 64.627905,
    "lon": -21.625875,
    "leaflet_coords": [
      64.627905,
      -21.625875
    ]
  },
  {
    "ID_lieu": 335,
    "Nom_lieu": "Öndverð-Eyri",
    "Coordonnees": "64.992951, -23.111993",
    "Type": "farm",
    "Notes":"NaN",
    "lat": 64.992951,
    "lon": -23.111993,
    "leaflet_coords": [
      64.992951,
      -23.111993
    ]
  },
  {
    "ID_lieu": 336,
    "Nom_lieu": "Berghylur",
    "Coordonnees": "64.15715, -20.246511",
    "Type": "farm",
    "Notes":"NaN",
    "lat": 64.15715,
    "lon": -20.246511,
    "leaflet_coords": [
      64.15715,
      -20.246511
    ]
  },
  {
    "ID_lieu": 337,
    "Nom_lieu": "Fagradalur (Fagridalur í Mýrdal)",
    "Coordonnees": "63.429839, -18.917339",
    "Type": "farm",
    "Notes":"NaN",
    "lat": 63.429839,
    "lon": -18.917339,
    "leaflet_coords": [
      63.429839,
      -18.917339
    ]
  },
  {
    "ID_lieu": 338,
    "Nom_lieu": "Djúpadalur",
    "Coordonnees": "65.455258, -18.274734",
    "Type": "farm",
    "Notes":"NaN",
    "lat": 65.455258,
    "lon": -18.274734,
    "leaflet_coords": [
      65.455258,
      -18.274734
    ]
  },
  {
    "ID_lieu": 339,
    "Nom_lieu": "Náttfaravík",
    "Coordonnees": "66.009159, -17.669329",
    "Type": "harbour",
    "Notes": "Bærinn heitir nú Naustavík, en Víknafjöll kend við víkur þær (ÍF X, bls 151).",
    "lat": 66.009159,
    "lon": -17.669329,
    "leaflet_coords": [
      66.009159,
      -17.669329
    ]
  },
  {
    "ID_lieu": 340,
    "Nom_lieu": "Hrísey",
    "Coordonnees": "65.9965194289924, -18.3825302124023",
    "Type": "island",
    "Notes":"NaN",
    "lat": 65.9965194289924,
    "lon": -18.3825302124023,
    "leaflet_coords": [
      65.9965194289924,
      -18.3825302124023
    ]
  },
  {
    "ID_lieu": 341,
    "Nom_lieu": "Glóðafeykisá (Hvammsá)",
    "Coordonnees": "65.580729, -19.269467",
    "Type": "river",
    "Notes":"NaN",
    "lat": 65.580729,
    "lon": -19.269467,
    "leaflet_coords": [
      65.580729,
      -19.269467
    ]
  },
  {
    "ID_lieu": 342,
    "Nom_lieu": "Berserkjahraun",
    "Coordonnees": "64.9587, -22.93352",
    "Type": "other",
    "Notes":"NaN",
    "lat": 64.9587,
    "lon": -22.93352,
    "leaflet_coords": [
      64.9587,
      -22.93352
    ]
  },
  {
    "ID_lieu": 343,
    "Nom_lieu": "Engines (Engjanes)",
    "Coordonnees": "66.129501, -21.745156",
    "Type": "peninsula",
    "Notes":"NaN",
    "lat": 66.129501,
    "lon": -21.745156,
    "leaflet_coords": [
      66.129501,
      -21.745156
    ]
  },
  {
    "ID_lieu": 344,
    "Nom_lieu": "Hefni",
    "Coordonnees": "63.5876752947032, 9.755859375",
    "Type": "island",
    "Notes": "Hefnisey eða Hefni ey? Á Hálogalandi er ekki talin vera nokkur ey með því nafni, en á Norðmæri er fjörðurinn Hefni(r?), og eyjan Hefniskel, og verður helzt að ætla, að við það sé átt.",
    "lat": 63.5876752947032,
    "lon": 9.755859375,
    "leaflet_coords": [
      63.5876752947032,
      9.755859375
    ]
  },
  {
    "ID_lieu": 345,
    "Nom_lieu": "Vatnsfjörður",
    "Coordonnees": "65.940115, -22.495461",
    "Type": "farm",
    "Notes":"NaN",
    "lat": 65.940115,
    "lon": -22.495461,
    "leaflet_coords": [
      65.940115,
      -22.495461
    ]
  },
  {
    "ID_lieu": 346,
    "Nom_lieu": "Skorraey",
    "Coordonnees": "64.455024, -22.210173",
    "Type": "island",
    "Notes": "same as Skorrey",
    "lat": 64.455024,
    "lon": -22.210173,
    "leaflet_coords": [
      64.455024,
      -22.210173
    ]
  },
  {
    "ID_lieu": 347,
    "Nom_lieu": "Garðar",
    "Coordonnees": "64.319909, -22.044876",
    "Type": "farm",
    "Notes":"NaN",
    "lat": 64.319909,
    "lon": -22.044876,
    "leaflet_coords": [
      64.319909,
      -22.044876
    ]
  },
  {
    "ID_lieu": 348,
    "Nom_lieu": "Mælifellsdalur",
    "Coordonnees": "65.389363, -19.397456",
    "Type": "valley",
    "Notes":"NaN",
    "lat": 65.389363,
    "lon": -19.397456,
    "leaflet_coords": [
      65.389363,
      -19.397456
    ]
  },
  {
    "ID_lieu": 349,
    "Nom_lieu": "Kópanes",
    "Coordonnees": "65.800293, -24.095476",
    "Type": "peninsula",
    "Notes":"NaN",
    "lat": 65.800293,
    "lon": -24.095476,
    "leaflet_coords": [
      65.800293,
      -24.095476
    ]
  },
  {
    "ID_lieu": 350,
    "Nom_lieu": "Skorraholt (Skorholt)",
    "Coordonnees": "64.409126, -21.926428",
    "Type": "farm",
    "Notes":"NaN",
    "lat": 64.409126,
    "lon": -21.926428,
    "leaflet_coords": [
      64.409126,
      -21.926428
    ]
  },
  {
    "ID_lieu": 351,
    "Nom_lieu": "Keldunes",
    "Coordonnees": "66.0765938116509, -16.6814517974853",
    "Type": "farm",
    "Notes":"NaN",
    "lat": 66.0765938116509,
    "lon": -16.6814517974853,
    "leaflet_coords": [
      66.0765938116509,
      -16.6814517974853
    ]
  },
  {
    "ID_lieu": 352,
    "Nom_lieu": "Sumarliðabær",
    "Coordonnees": "63.903568, -20.510895",
    "Type": "farm",
    "Notes":"NaN",
    "lat": 63.903568,
    "lon": -20.510895,
    "leaflet_coords": [
      63.903568,
      -20.510895
    ]
  },
  {
    "ID_lieu": 353,
    "Nom_lieu": "Álftaver",
    "Coordonnees": "63.566755, -18.438489",
    "Type": "other",
    "Notes":"NaN",
    "lat": 63.566755,
    "lon": -18.438489,
    "leaflet_coords": [
      63.566755,
      -18.438489
    ]
  },
  {
    "ID_lieu": 354,
    "Nom_lieu": "Kaldaklofsá (Kaldaklifsá)",
    "Coordonnees": "63.524117, -19.603126",
    "Type": "river",
    "Notes":"NaN",
    "lat": 63.524117,
    "lon": -19.603126,
    "leaflet_coords": [
      63.524117,
      -19.603126
    ]
  },
  {
    "ID_lieu": 355,
    "Nom_lieu": "Gautsdalur",
    "Coordonnees": "65.5675497021431, -19.8900604248047",
    "Type": "valley",
    "Notes":"NaN",
    "lat": 65.5675497021431,
    "lon": -19.8900604248047,
    "leaflet_coords": [
      65.5675497021431,
      -19.8900604248047
    ]
  },
  {
    "ID_lieu": 356,
    "Nom_lieu": "Augastaðir",
    "Coordonnees": "64.672055, -21.026526",
    "Type": "farm",
    "Notes":"NaN",
    "lat": 64.672055,
    "lon": -21.026526,
    "leaflet_coords": [
      64.672055,
      -21.026526
    ]
  },
  {
    "ID_lieu": 357,
    "Nom_lieu": "Villingadalur",
    "Coordonnees": "65.326409, -18.293245",
    "Type": "valley",
    "Notes":"NaN",
    "lat": 65.326409,
    "lon": -18.293245,
    "leaflet_coords": [
      65.326409,
      -18.293245
    ]
  },
  {
    "ID_lieu": 358,
    "Nom_lieu": "Þingeyrasveit",
    "Coordonnees": "65.44314, -20.536678",
    "Type": "region",
    "Notes":"NaN",
    "lat": 65.44314,
    "lon": -20.536678,
    "leaflet_coords": [
      65.44314,
      -20.536678
    ]
  },
  {
    "ID_lieu": 359,
    "Nom_lieu": "Dufþaksholt",
    "Coordonnees": "63.732085, -20.229923",
    "Type": "farm",
    "Notes":"NaN",
    "lat": 63.732085,
    "lon": -20.229923,
    "leaflet_coords": [
      63.732085,
      -20.229923
    ]
  },
  {
    "ID_lieu": 360,
    "Nom_lieu": "Upplönd",
    "Coordonnees": "62.225037, 8.86413",
    "Type": "region",
    "Notes":"NaN",
    "lat": 62.225037,
    "lon": 8.86413,
    "leaflet_coords": [
      62.225037,
      8.86413
    ]
  },